~Version Information
 VERS.                 2.0: 
 WRAP.                 YES: 
 END.                PETRA:GeoPLUS Corporation
~Well Information Block
#MNEM.UNIT       Data Type    Information
#---------    -------------   ---------------------------------
 STRT.F           1864.0000:
 STOP.F           7551.0000:
 STEP.F              0.5000:
 NULL.              -999.25:
 COMP.                           : COMPANY
 FLD.       SP 24                : FIELD
 LOC.                            : LOCATION
 DATE.      29-AUG-2018          : DATE
 WELL.      ST TIM  U2           : Well Name
 LABL.      ST TIM U2 #3 ST1                 : Well Label
 APIN.      170750312001         : API Number
 UWI.       170750312001         : Unique Well Number
 NUMB.      3 ST                 : Well Number
 OPER.      HEC                  : Operator Name
~Parameter Block
#MNEM.UNIT           VALUE            Description
#---------    --------------------   ---------------------------------
 EKB.F                    36.0 : KB Elevation
~Curve Information Block
#MNEM.UNIT      API CODE      Curve Description
#---------    -------------   ---------------------------------
 DEPT.F                   00 000 00 00: Depth (MD)
 BIT.IN                   00 001 00 00: Bit size
 CAL.IN                   00 002 00 00: Caliper
 CALX.IN                  00 003 00 00: 
 CNCF.PU                  00 004 00 00: 3 FIELD NORMALIZED COMPENSATED NEUTRON P
 DT24QI.us/ft             00 005 00 00: Slowness over 24-inch interval
 DTC.US/F                 00 006 00 00: 17 COMPRESSIONAL WAVE SLOWNESS (INPUT; R
 DTS.US/F                 00 007 00 00: 18 SHEAR WAVE SLOWNESS (INPUT; R1_ACOUST
 GR.API                   00 008 00 00: Gamma ray; total
 GR_1.GAPI                00 009 00 00: Gamma Ray counts
 M0C6.MMHO                00 010 00 00: 5 FOCUSED INDUCTION CONDUCTIVITY - DOI 6
 M0R2.OHMM                00 011 00 00: True focused resistivity for MITRE - DOI
 M0R6.OHMM                00 012 00 00: True focused resistivity for MITRE - DOI
 M2R1.OHMM                00 013 00 00: 6 VERT RESOLUTION MATCHED (2 FT) RES - D
 M2R2.OHMM                00 014 00 00: 7 VERT RESOLUTION MATCHED (2 FT) RES - D
 M2R3.OHMM                00 015 00 00: 8 VERT RESOLUTION MATCHED (2 FT) RES - D
 M2R6.OHMM                00 016 00 00: 9 VERT RESOLUTION MATCHED (2 FT) RES - D
 M2R9.OHMM                00 017 00 00: 10 VERT RESOLUTION MATCHED (2 FT) RES -
 M2RX.OHMM                00 018 00 00: Vert resolution matched (2 ft) res - DOI
 PORAQI.pu                00 019 00 00: Acoustic porosity
 PORZC.pu                 00 020 00 00: Corrected porosity
 RWAZC.OHMM               00 021 00 00: Apparent formation water resistivity (co
 SCRA.                    00 022 00 00: 19 SHEAR TO COMPRESSIONAL SLOWNESS RATIO
 TEN.LBF                  00 023 00 00: 14 DIFFERENTIAL TENSION (INPUT; R1_MD_BA
 TEN_1.LBF                00 024 00 00: Differential Tension
 ZCOR.G/C3                00 025 00 00: 15 ZDL CORRECTION (INPUT; R1_MD_BA.LAS-Z
 ZDNC.g/cm3               00 026 00 00: Borehole size/mud weight corrected bulk mass density
~A
# ...
    5314.000
       9.875      10.388      10.388      35.274     125.140
     125.379     322.173      28.155      28.155    4479.159
       0.229       0.223       0.244       0.227       0.225
       0.228       0.232       0.232      51.741      34.003
       0.037       2.570     -36.144     -36.144       0.023
       2.089
    5314.500
       9.875      10.367      10.367      38.100     127.830
     126.922     321.353      29.011      29.011    4485.588
       0.229       0.223       0.246       0.228       0.227
       0.230       0.234       0.234      53.743      34.694
       0.039       2.532     -60.219     -60.219       0.025
       2.078
    5315.000
       9.875      10.350      10.350      39.494     129.656
     127.922     321.023      30.167      30.167    4506.517
       0.228       0.222       0.248       0.229       0.228
       0.231       0.235       0.235      55.101      35.275
       0.040       2.510     -68.111     -68.111       0.026
       2.068
    5315.500
       9.875      10.375      10.375      38.171     130.021
     127.821     321.861      31.023      31.023    4541.197
       0.226       0.220       0.248       0.228       0.226
       0.229       0.233       0.233      55.373      35.714
       0.041       2.518     -50.720     -50.720       0.024
       2.061
    5316.000
       9.875      10.441      10.441      36.013     129.134
     127.521     323.895      31.367      31.367    4586.505
       0.223       0.218       0.246       0.224       0.222
       0.225       0.228       0.229      54.712      35.900
       0.041       2.540     -38.293     -38.293       0.019
       2.058
    5316.500
       9.875      10.495      10.495      35.729     127.726
     127.112     325.988      31.304      31.304    4638.931
       0.218       0.216       0.242       0.219       0.216
       0.218       0.222       0.222      53.665      35.789
       0.039       2.565     -39.724     -39.724       0.015
       2.059
    5317.000
       9.875      10.496      10.496      38.377     126.511
     126.719     327.560      30.733      30.733    4693.318
       0.214       0.213       0.238       0.213       0.210
       0.212       0.215       0.216      52.761      35.703
       0.038       2.585     -40.934     -40.934       0.013
       2.061
    5317.500
       9.875      10.442      10.442      41.172     125.875
     126.475     330.841      30.432      30.432    4745.361
       0.209       0.211       0.234       0.209       0.205
       0.207       0.210       0.211      52.288      35.983
       0.038       2.616     -46.564     -46.564       0.015
       2.056
    5318.000
       9.875      10.363      10.363      40.762     125.965
     126.353     333.385      30.968      30.968    4790.675
       0.206       0.209       0.229       0.204       0.200
       0.202       0.205       0.206      52.355      36.392
       0.038       2.639     -58.717     -58.717       0.019
       2.050
    5318.500
       9.875      10.303      10.303      40.051     126.736
     126.613     336.565      31.066      31.066    4827.071
       0.205       0.207       0.227       0.202       0.197
       0.199       0.202       0.203      52.929      36.453
       0.037       2.658     -63.204     -63.204       0.026
       2.049
    5319.000
       9.875      10.292      10.292      40.736     127.819
     126.973     337.132      30.651      30.651    4853.116
       0.205       0.206       0.228       0.202       0.197
       0.199       0.201       0.203      53.734      36.174
       0.037       2.655     -64.449     -64.449       0.032
       2.053
    5319.500
       9.875      10.330      10.330      40.476     128.650
     127.157     335.239      31.300      31.300    4869.502
       0.206       0.205       0.233       0.205       0.200
       0.201       0.204       0.205      54.353      35.874
       0.037       2.636     -62.264     -62.264       0.033
       2.058
    5320.000
       9.875      10.395      10.395      38.442     128.918
     127.234     330.549      32.909      32.909    4877.045
       0.207       0.205       0.238       0.209       0.203
       0.204       0.207       0.208      54.552      35.676
       0.037       2.598     -40.387     -40.387       0.031
       2.061
    5320.500
       9.875      10.441      10.441      37.168     128.843
     127.022     328.813      34.035      34.035    4877.533
       0.207       0.205       0.240       0.210       0.203
       0.205       0.208       0.209      54.496      35.567
       0.036       2.589     -15.746     -15.746       0.030
       2.063
    5321.000
       9.875      10.426      10.426      37.422     128.947
     126.771     327.005      34.053      34.053    4871.988
       0.207       0.205       0.237       0.207       0.200
       0.202       0.204       0.205      54.574      35.663
       0.036       2.580     -18.572     -18.572       0.031
       2.062
    5321.500
       9.875      10.344      10.344      37.920     129.447
     126.225     326.228      33.422      33.422    4861.949
       0.207       0.206       0.233       0.203       0.197
       0.199       0.201       0.202      54.945      35.947
       0.036       2.584     -42.770     -42.770       0.034
       2.057
    5322.000
       9.875      10.224      10.224      37.195     129.812
     125.697     326.067      33.050      33.050    4848.168
       0.208       0.206       0.234       0.204       0.198
       0.199       0.202       0.202      55.217      36.133
       0.037       2.594     -56.594     -56.594       0.038
       2.054
    5322.500
       9.875      10.144      10.144      36.522     129.110
     125.214     327.716      32.965      32.965    4832.042
       0.210       0.207       0.240       0.209       0.202
       0.204       0.206       0.207      54.695      36.148
       0.037       2.617     -39.739     -39.739       0.038
       2.054
    5323.000
       9.875      10.172      10.172      37.792     126.986
     124.766     327.283      32.750      32.750    4814.162
       0.213       0.208       0.247       0.215       0.208
       0.209       0.212       0.213      53.114      36.166
       0.038       2.623      -5.380      -5.380       0.032
       2.053
    5323.500
       9.875      10.265      10.265      39.024     124.294
     124.866     325.379      32.486      32.486    4795.069
       0.215       0.209       0.252       0.218       0.211
       0.213       0.215       0.216      51.111      36.347
       0.040       2.606      11.177      11.177       0.022
       2.050
    5324.000
       9.875      10.329      10.329      38.857     122.601
     125.160     326.196      32.063      32.063    4774.073
       0.215       0.209       0.252       0.218       0.211
       0.213       0.215       0.216      49.852      36.687
       0.040       2.606       1.095       1.095       0.011
       2.045
    5324.500
       9.875      10.341      10.341      38.972     122.938
     126.171     330.053      31.676      31.676    4750.179
       0.214       0.211       0.247       0.214       0.207
       0.209       0.212       0.212      50.103      37.011
       0.040       2.616     -14.687     -14.687       0.006
       2.039
    5325.000
       9.875      10.323      10.323      39.070     124.913
     126.336     334.817      31.580      31.580    4721.999
       0.213       0.212       0.241       0.210       0.203
       0.206       0.208       0.209      51.572      37.116
       0.040       2.650     -27.130     -27.130       0.010
       2.038
    5325.500
       9.875      10.297      10.297      38.429     126.962
     126.370     339.328      31.750      31.750    4688.911
       0.214       0.213       0.242       0.211       0.205
       0.207       0.210       0.210      53.097      37.078
       0.040       2.685     -35.988     -35.988       0.018
       2.038
    5326.000
       9.875      10.290      10.290      38.929     127.570
     125.701     340.319      32.959      32.959    4651.497
       0.217       0.215       0.250       0.218       0.212
       0.215       0.218       0.218      53.549      36.991
       0.042       2.707     -29.144     -29.144       0.026
       2.040
