~Version Information
 VERS.                 2.0: 
 WRAP.                 YES: 
 END.                PETRA:GeoPLUS Corporation
~Well Information Block
#MNEM.UNIT       Data Type    Information
#---------    -------------   ---------------------------------
 STRT.F           1864.0000:
 STOP.F           7551.0000:
 STEP.F              0.5000:
 NULL.              -999.25:
 COMP.                           : COMPANY
 FLD.       SP 24                : FIELD
 LOC.                            : LOCATION
 DATE.      29-AUG-2018          : DATE
 WELL.      ST TIM  U2           : Well Name
 LABL.      ST TIM U2 #3 ST1                 : Well Label
 APIN.      170750312001         : API Number
 UWI.       170750312001         : Unique Well Number
 NUMB.      3 ST                 : Well Number
 OPER.      HEC                  : Operator Name
~Parameter Block
#MNEM.UNIT           VALUE            Description
#---------    --------------------   ---------------------------------
 EKB.F                    36.0 : KB Elevation
~Curve Information Block
#MNEM.UNIT      API CODE      Curve Description
#---------    -------------   ---------------------------------
 DEPT.F                   00 000 00 00: Depth (MD)
 BIT.IN                   00 001 00 00: Bit size
 CAL.IN                   00 002 00 00: Caliper
 CALX.IN                  00 003 00 00: 
 CNCF.PU                  00 004 00 00: 3 FIELD NORMALIZED COMPENSATED NEUTRON P
 DT24QI.us/ft             00 005 00 00: Slowness over 24-inch interval
 DTC.US/F                 00 006 00 00: 17 COMPRESSIONAL WAVE SLOWNESS (INPUT; R
 DTS.US/F                 00 007 00 00: 18 SHEAR WAVE SLOWNESS (INPUT; R1_ACOUST
 GR.API                   00 008 00 00: Gamma ray; total
 GR_1.GAPI                00 009 00 00: Gamma Ray counts
 M0C6.MMHO                00 010 00 00: 5 FOCUSED INDUCTION CONDUCTIVITY - DOI 6
 M0R2.OHMM                00 011 00 00: True focused resistivity for MITRE - DOI
 M0R6.OHMM                00 012 00 00: True focused resistivity for MITRE - DOI
 M2R1.OHMM                00 013 00 00: 6 VERT RESOLUTION MATCHED (2 FT) RES - D
 M2R2.OHMM                00 014 00 00: 7 VERT RESOLUTION MATCHED (2 FT) RES - D
 M2R3.OHMM                00 015 00 00: 8 VERT RESOLUTION MATCHED (2 FT) RES - D
 M2R6.OHMM                00 016 00 00: 9 VERT RESOLUTION MATCHED (2 FT) RES - D
 M2R9.OHMM                00 017 00 00: 10 VERT RESOLUTION MATCHED (2 FT) RES -
 M2RX.OHMM                00 018 00 00: Vert resolution matched (2 ft) res - DOI
 PORAQI.pu                00 019 00 00: Acoustic porosity
 PORZC.pu                 00 020 00 00: Corrected porosity
 RWAZC.OHMM               00 021 00 00: Apparent formation water resistivity (co
 SCRA.                    00 022 00 00: 19 SHEAR TO COMPRESSIONAL SLOWNESS RATIO
 TEN.LBF                  00 023 00 00: 14 DIFFERENTIAL TENSION (INPUT; R1_MD_BA
 TEN_1.LBF                00 024 00 00: Differential Tension
 ZCOR.G/C3                00 025 00 00: 15 ZDL CORRECTION (INPUT; R1_MD_BA.LAS-Z
 ZDNC.g/cm3               00 026 00 00: Borehole size/mud weight corrected bulk mass density
~A
# ...
    6426.500
       9.875      10.237      10.237      43.723     118.469
     116.879     286.803      96.965      96.965    1270.167
       0.784       0.787       0.824       0.790       0.793
       0.808       0.823       0.829      46.778      18.509
       0.036       2.454       1.846       1.846       0.046
       2.345
    6427.000
       9.875      10.255      10.255      45.709     118.893
     117.857     291.315      97.901      97.901    1288.901
       0.766       0.776       0.798       0.766       0.768
       0.783       0.797       0.803      47.093      18.332
       0.034       2.472     -10.026     -10.026       0.042
       2.348
    6427.500
       9.875      10.257      10.257      48.186     118.470
     118.245     295.703      97.499      97.499    1306.759
       0.749       0.765       0.778       0.746       0.748
       0.762       0.777       0.783      46.779      18.392
       0.033       2.501     -26.550     -26.550       0.035
       2.347
    6428.000
       9.875      10.247      10.247      49.210     118.022
     118.113     298.129      98.466      98.466    1322.903
       0.735       0.756       0.765       0.733       0.736
       0.750       0.764       0.769      46.445      18.741
       0.034       2.524     -24.784     -24.784       0.029
       2.341
    6428.500
       9.875      10.210      10.210      48.905     118.234
     118.278     298.667     100.317     100.317    1336.609
       0.725       0.748       0.755       0.724       0.726
       0.740       0.754       0.759      46.602      18.875
       0.034       2.525      -7.800      -7.800       0.030
       2.339
    6429.000
       9.875      10.158      10.158      48.704     119.080
     119.333     298.717     100.713     100.713    1347.375
       0.718       0.742       0.744       0.714       0.716
       0.730       0.743       0.749      47.232      18.626
       0.033       2.503      -0.466      -0.466       0.036
       2.343
    6429.500
       9.875      10.139      10.139      48.552     119.752
     120.121     297.687     100.210     100.210    1354.999
       0.715       0.738       0.736       0.708       0.710
       0.724       0.737       0.743      47.732      18.286
       0.031       2.478      -6.579      -6.579       0.044
       2.348
    6430.000
       9.875      10.173      10.173      47.063     119.550
     120.403     294.663     100.759     100.759    1359.556
       0.717       0.736       0.737       0.710       0.712
       0.726       0.739       0.744      47.582      17.949
       0.030       2.447      -9.693      -9.693       0.047
       2.354
    6430.500
       9.875      10.229      10.229      44.503     118.629
     120.376     288.609     100.867     100.867    1361.299
       0.721       0.735       0.747       0.719       0.721
       0.736       0.749       0.755      46.896      17.613
       0.029       2.398      -6.571      -6.571       0.046
       2.359
    6431.000
       9.875      10.271      10.271      43.395     117.772
     119.752     282.828      99.299      99.299    1360.509
       0.725       0.735       0.762       0.732       0.735
       0.750       0.763       0.769      46.259      17.531
       0.029       2.362      -8.685      -8.685       0.042
       2.361
    6431.500
       9.875      10.291      10.291      43.555     117.523
     118.950     278.787      98.400      98.400    1357.352
       0.727       0.737       0.773       0.741       0.744
       0.760       0.773       0.780      46.073      18.005
       0.032       2.344     -14.081     -14.081       0.037
       2.353
    6432.000
       9.875      10.301      10.301      43.606     117.431
     117.755     278.689      97.439      97.439    1351.820
       0.727       0.740       0.768       0.738       0.741
       0.758       0.771       0.778      46.005      19.072
       0.036       2.367     -14.230     -14.230       0.034
       2.335
    6432.500
       9.875      10.304      10.304      43.702     116.457
     117.048     279.805      93.845      93.845    1343.742
       0.725       0.744       0.751       0.724       0.728
       0.745       0.757       0.766      45.281      20.204
       0.040       2.391     -13.249     -13.249       0.037
       2.317
    6433.000
       9.875      10.299      10.299      44.197     114.356
     117.249     280.651      89.666      89.666    1332.914
       0.726       0.750       0.741       0.716       0.721
       0.738       0.750       0.760      43.717      20.619
       0.041       2.394     -16.730     -16.730       0.045
       2.310
    6433.500
       9.875      10.296      10.296      44.659     112.310
     118.237     280.660      89.206      89.206    1319.299
       0.732       0.758       0.750       0.727       0.732
       0.750       0.763       0.774      42.195      20.148
       0.040       2.374     -18.293     -18.293       0.053
       2.318
    6434.000
       9.875      10.301      10.301      45.604     111.699
     117.726     279.598      91.281      91.281    1303.205
       0.742       0.767       0.772       0.749       0.755
       0.774       0.788       0.800      41.741      19.318
       0.038       2.375     -21.884     -21.884       0.055
       2.331
    6434.500
       9.875      10.308      10.308      45.915     112.260
     116.708     274.275      92.881      92.881    1285.547
       0.755       0.778       0.786       0.763       0.769
       0.788       0.802       0.816      42.158      18.774
       0.036       2.350     -33.480     -33.480       0.050
       2.340
    6435.000
       9.875      10.319      10.319      44.656     111.554
     114.030     260.156      91.859      91.859    1267.887
       0.773       0.789       0.790       0.765       0.770
       0.788       0.803       0.818      41.632      18.725
       0.036       2.281     -44.221     -44.221       0.040
       2.341
    6435.500
       9.875      10.324      10.324      43.083     107.050
     109.618     242.651      86.461      86.461    1252.610
       0.801       0.798       0.806       0.776       0.778
       0.794       0.808       0.824      38.281      18.638
       0.036       2.214     -54.278     -54.278       0.033
       2.342
    6436.000
       9.875      10.308      10.308      40.988      99.033
     104.103     221.729      76.238      76.238    1242.508
       0.846       0.805       0.868       0.823       0.821
       0.836       0.852       0.867      32.316      17.533
       0.033       2.130     -64.847     -64.847       0.033
       2.361
    6436.500
       9.875      10.286      10.286      38.027      91.062
      99.371     210.447      62.701      62.701    1240.683
       0.901       0.806       1.016       0.939       0.932
       0.947       0.966       0.984      26.385      15.132
       0.027       2.118     -52.746     -52.746       0.037
       2.400
    6437.000
       9.875      10.278      10.278      34.911      87.370
      96.952     204.040      50.799      50.799    1249.651
       0.943       0.800       1.229       1.098       1.080
       1.093       1.118       1.139      23.639      13.345
       0.024       2.105     -18.639     -18.639       0.040
       2.430
    6437.500
       9.875      10.337      10.337      33.001      89.495
      96.443     208.703      45.934      45.934    1271.219
       0.940       0.786       1.282       1.125       1.099
       1.106       1.132       1.152      25.219      15.409
       0.033       2.164      -3.922      -3.922       0.031
       2.396
    6438.000
       9.875      10.523      10.523      32.590      95.380
      97.278     217.419      47.685      47.685    1305.964
       0.890       0.766       1.084       0.965       0.943
       0.942       0.962       0.975      29.598      20.427
       0.052       2.235     -21.127     -21.127       0.019
       2.313
    6438.500
       9.875      10.769      10.769      33.263     101.490
     100.608     229.893      51.276      51.276    1353.823
       0.820       0.739       0.884       0.799       0.782
       0.777       0.791       0.798      34.145      23.814
       0.059       2.285     -29.219     -29.219       0.021
       2.257
