~Version Information
 VERS.                 2.0: 
 WRAP.                 YES: 
 END.                PETRA:GeoPLUS Corporation
~Well Information Block
#MNEM.UNIT       Data Type    Information
#---------    -------------   ---------------------------------
 STRT.F           1864.0000:
 STOP.F           7551.0000:
 STEP.F              0.5000:
 NULL.              -999.25:
 COMP.                           : COMPANY
 FLD.       SP 24                : FIELD
 LOC.                            : LOCATION
 DATE.      29-AUG-2018          : DATE
 WELL.      ST TIM  U2           : Well Name
 LABL.      ST TIM U2 #3 ST1                 : Well Label
 APIN.      170750312001         : API Number
 UWI.       170750312001         : Unique Well Number
 NUMB.      3 ST                 : Well Number
 OPER.      HEC                  : Operator Name
~Parameter Block
#MNEM.UNIT           VALUE            Description
#---------    --------------------   ---------------------------------
 EKB.F                    36.0 : KB Elevation
~Curve Information Block
#MNEM.UNIT      API CODE      Curve Description
#---------    -------------   ---------------------------------
 DEPT.F                   00 000 00 00: Depth (MD)
 BIT.IN                   00 001 00 00: Bit size
 CAL.IN                   00 002 00 00: Caliper
 CALX.IN                  00 003 00 00: 
 CNCF.PU                  00 004 00 00: 3 FIELD NORMALIZED COMPENSATED NEUTRON P
 DT24QI.us/ft             00 005 00 00: Slowness over 24-inch interval
 DTC.US/F                 00 006 00 00: 17 COMPRESSIONAL WAVE SLOWNESS (INPUT; R
 DTS.US/F                 00 007 00 00: 18 SHEAR WAVE SLOWNESS (INPUT; R1_ACOUST
 GR.API                   00 008 00 00: Gamma ray; total
 GR_1.GAPI                00 009 00 00: Gamma Ray counts
 M0C6.MMHO                00 010 00 00: 5 FOCUSED INDUCTION CONDUCTIVITY - DOI 6
 M0R2.OHMM                00 011 00 00: True focused resistivity for MITRE - DOI
 M0R6.OHMM                00 012 00 00: True focused resistivity for MITRE - DOI
 M2R1.OHMM                00 013 00 00: 6 VERT RESOLUTION MATCHED (2 FT) RES - D
 M2R2.OHMM                00 014 00 00: 7 VERT RESOLUTION MATCHED (2 FT) RES - D
 M2R3.OHMM                00 015 00 00: 8 VERT RESOLUTION MATCHED (2 FT) RES - D
 M2R6.OHMM                00 016 00 00: 9 VERT RESOLUTION MATCHED (2 FT) RES - D
 M2R9.OHMM                00 017 00 00: 10 VERT RESOLUTION MATCHED (2 FT) RES -
 M2RX.OHMM                00 018 00 00: Vert resolution matched (2 ft) res - DOI
 PORAQI.pu                00 019 00 00: Acoustic porosity
 PORZC.pu                 00 020 00 00: Corrected porosity
 RWAZC.OHMM               00 021 00 00: Apparent formation water resistivity (co
 SCRA.                    00 022 00 00: 19 SHEAR TO COMPRESSIONAL SLOWNESS RATIO
 TEN.LBF                  00 023 00 00: 14 DIFFERENTIAL TENSION (INPUT; R1_MD_BA
 TEN_1.LBF                00 024 00 00: Differential Tension
 ZCOR.G/C3                00 025 00 00: 15 ZDL CORRECTION (INPUT; R1_MD_BA.LAS-Z
 ZDNC.g/cm3               00 026 00 00: Borehole size/mud weight corrected bulk mass density
~A
# ...
    3826.500
       9.875      10.467      10.467      44.809     134.031
     133.705     408.301      80.177      80.177    2326.048
       0.435       0.430       0.445       0.442       0.454
       0.471       0.471       0.493      58.356      27.657
       0.050       3.054     -38.868     -38.868       0.027
       2.194
    3827.000
       9.875      10.466      10.466      47.122     132.704
     132.930     406.445      80.163      80.163    2268.625
       0.442       0.441       0.453       0.453       0.467
       0.486       0.489       0.511      57.369      26.748
       0.048       3.058     -28.379     -28.379       0.033
       2.209
    3827.500
       9.875      10.478      10.478      49.731     131.064
     132.375     404.203      80.836      80.836    2220.783
       0.450       0.450       0.460       0.464       0.481
       0.502       0.508       0.531      56.149      26.114
       0.048       3.053     -13.185     -13.185       0.035
       2.219
    3828.000
       9.875      10.495      10.495      51.088     129.438
     131.890     402.096      83.974      83.974    2181.071
       0.457       0.458       0.465       0.471       0.491
       0.515       0.524       0.547      54.939      26.138
       0.049       3.049      -7.826      -7.826       0.031
       2.219
    3828.500
       9.875      10.483      10.483      48.814     128.410
     131.452     399.747      88.925      88.925    2149.635
       0.463       0.465       0.468       0.476       0.498
       0.524       0.535       0.558      54.174      26.297
       0.051       3.041      -0.543      -0.543       0.026
       2.216
    3829.000
       9.875      10.435      10.435      45.338     128.523
     130.861     396.887      91.508      91.508    2127.178
       0.466       0.470       0.469       0.479       0.502
       0.529       0.542       0.564      54.258      26.020
       0.050       3.033       5.262       5.262       0.024
       2.221
    3829.500
       9.875      10.386      10.386      43.911     129.844
     130.727     395.249      89.854      89.854    2113.973
       0.468       0.473       0.471       0.480       0.504
       0.531       0.546       0.566      55.241      25.483
       0.048       3.023      -6.927      -6.927       0.026
       2.230
    3830.000
       9.875      10.369      10.369      44.074     131.854
     130.678     395.293      87.056      87.056    2109.500
       0.468       0.474       0.472       0.481       0.505
       0.532       0.548       0.566      56.737      25.130
       0.047       3.025     -15.420     -15.420       0.028
       2.235
    3830.500
       9.875      10.390      10.390      44.382     133.639
     130.663     397.216      86.754      86.754    2112.386
       0.465       0.473       0.471       0.480       0.503
       0.529       0.545       0.561      58.065      25.050
       0.046       3.040     -10.539     -10.539       0.029
       2.237
    3831.000
       9.875      10.452      10.452      45.021     134.694
     131.123     400.344      88.754      88.754    2120.658
       0.461       0.472       0.467       0.474       0.496
       0.521       0.537       0.550      58.849      25.126
       0.046       3.053      -8.689      -8.689       0.029
       2.235
    3831.500
       9.875      10.530      10.530      46.133     135.200
     131.639     404.147      90.496      90.496    2132.097
       0.455       0.469       0.459       0.465       0.486
       0.510       0.525       0.536      59.226      25.253
       0.045       3.070     -10.416     -10.416       0.028
       2.233
    3832.000
       9.875      10.579      10.579      46.207     135.458
     132.749     407.959      90.839      90.839    2144.569
       0.449       0.466       0.452       0.457       0.477
       0.500       0.515       0.524      59.418      25.291
       0.044       3.073      -6.434      -6.434       0.028
       2.233
    3832.500
       9.875      10.582      10.582      45.558     135.557
     133.859     410.977      90.219      90.219    2156.353
       0.444       0.464       0.446       0.450       0.469
       0.492       0.506       0.513      59.492      25.314
       0.043       3.070       1.512       1.512       0.027
       2.232
    3833.000
       9.875      10.566      10.566      46.127     135.342
     134.726     411.560      89.406      89.406    2166.347
       0.441       0.462       0.441       0.444       0.463
       0.485       0.499       0.504      59.332      25.610
       0.043       3.055       8.580       8.580       0.026
       2.227
    3833.500
       9.875      10.557      10.557      46.979     134.753
     135.163     411.365      89.244      89.244    2174.188
       0.439       0.460       0.439       0.442       0.460
       0.481       0.495       0.500      58.894      26.041
       0.045       3.043       2.546       2.546       0.025
       2.220
    3834.000
       9.875      10.563      10.563      46.694     134.074
     135.284     410.823      89.951      89.951    2180.187
       0.440       0.459       0.442       0.444       0.462
       0.484       0.498       0.501      58.388      26.117
       0.045       3.037     -16.484     -16.484       0.026
       2.219
    3834.500
       9.875      10.570      10.570      45.490     133.762
     135.352     410.072      91.127      91.127    2185.214
       0.442       0.458       0.448       0.449       0.466
       0.489       0.503       0.506      58.156      25.710
       0.044       3.030     -29.370     -29.370       0.028
       2.226
    3835.000
       9.875      10.563      10.563      43.899     134.105
     135.495     410.150      92.529      92.529    2190.383
       0.443       0.457       0.452       0.453       0.470
       0.492       0.506       0.509      58.412      25.039
       0.042       3.027     -25.595     -25.595       0.029
       2.237
    3835.500
       9.875      10.521      10.521      42.070     134.964
     135.601     411.379      93.518      93.518    2196.791
       0.443       0.455       0.452       0.452       0.469
       0.491       0.504       0.507      59.050      24.338
       0.039       3.034     -14.477     -14.477       0.029
       2.248
    3836.000
       9.875      10.434      10.434      42.186     135.892
     135.360     412.709      93.709      93.709    2205.217
       0.441       0.453       0.449       0.448       0.464
       0.486       0.499       0.502      59.741      23.948
       0.037       3.049      -6.642      -6.642       0.028
       2.255
    3836.500
       9.875      10.327      10.327      44.465     136.418
     135.527     414.541      93.002      93.002    2215.950
       0.437       0.451       0.444       0.443       0.458
       0.479       0.492       0.495      60.132      23.801
       0.036       3.059      -6.510      -6.510       0.027
       2.257
    3837.000
       9.875      10.258      10.258      46.433     136.347
     135.646     416.738      92.686      92.686    2228.735
       0.433       0.449       0.439       0.437       0.452
       0.472       0.485       0.488      60.080      23.434
       0.035       3.072     -16.572     -16.572       0.030
       2.263
    3837.500
       9.875      10.254      10.254      48.028     135.938
     136.159     419.338      94.051      94.051    2242.803
       0.429       0.446       0.434       0.432       0.446
       0.465       0.478       0.481      59.776      23.174
       0.033       3.080     -22.414     -22.414       0.033
       2.268
    3838.000
       9.875      10.302      10.302      51.269     135.754
     136.748     422.483      94.883      94.883    2257.012
       0.425       0.443       0.429       0.427       0.440
       0.459       0.471       0.475      59.638      23.840
       0.035       3.089     -12.206     -12.206       0.031
       2.257
    3838.500
       9.875      10.377      10.377      54.248     136.255
     137.202     426.771      93.783      93.783    2270.021
       0.420       0.441       0.426       0.423       0.436
       0.454       0.466       0.470      60.011      25.053
       0.039       3.111       0.306       0.306       0.027
       2.237
