~Version Information
 VERS.                 2.0: 
 WRAP.                 YES: 
 END.                PETRA:GeoPLUS Corporation
~Well Information Block
#MNEM.UNIT       Data Type    Information
#---------    -------------   ---------------------------------
 STRT.F           1864.0000:
 STOP.F           7551.0000:
 STEP.F              0.5000:
 NULL.              -999.25:
 COMP.                           : COMPANY
 FLD.       SP 24                : FIELD
 LOC.                            : LOCATION
 DATE.      29-AUG-2018          : DATE
 WELL.      ST TIM  U2           : Well Name
 LABL.      ST TIM U2 #3 ST1                 : Well Label
 APIN.      170750312001         : API Number
 UWI.       170750312001         : Unique Well Number
 NUMB.      3 ST                 : Well Number
 OPER.      HEC                  : Operator Name
~Parameter Block
#MNEM.UNIT           VALUE            Description
#---------    --------------------   ---------------------------------
 EKB.F                    36.0 : KB Elevation
~Curve Information Block
#MNEM.UNIT      API CODE      Curve Description
#---------    -------------   ---------------------------------
 DEPT.F                   00 000 00 00: Depth (MD)
 BIT.IN                   00 001 00 00: Bit size
 CAL.IN                   00 002 00 00: Caliper
 CALX.IN                  00 003 00 00: 
 CNCF.PU                  00 004 00 00: 3 FIELD NORMALIZED COMPENSATED NEUTRON P
 DT24QI.us/ft             00 005 00 00: Slowness over 24-inch interval
 DTC.US/F                 00 006 00 00: 17 COMPRESSIONAL WAVE SLOWNESS (INPUT; R
 DTS.US/F                 00 007 00 00: 18 SHEAR WAVE SLOWNESS (INPUT; R1_ACOUST
 GR.API                   00 008 00 00: Gamma ray; total
 GR_1.GAPI                00 009 00 00: Gamma Ray counts
 M0C6.MMHO                00 010 00 00: 5 FOCUSED INDUCTION CONDUCTIVITY - DOI 6
 M0R2.OHMM                00 011 00 00: True focused resistivity for MITRE - DOI
 M0R6.OHMM                00 012 00 00: True focused resistivity for MITRE - DOI
 M2R1.OHMM                00 013 00 00: 6 VERT RESOLUTION MATCHED (2 FT) RES - D
 M2R2.OHMM                00 014 00 00: 7 VERT RESOLUTION MATCHED (2 FT) RES - D
 M2R3.OHMM                00 015 00 00: 8 VERT RESOLUTION MATCHED (2 FT) RES - D
 M2R6.OHMM                00 016 00 00: 9 VERT RESOLUTION MATCHED (2 FT) RES - D
 M2R9.OHMM                00 017 00 00: 10 VERT RESOLUTION MATCHED (2 FT) RES -
 M2RX.OHMM                00 018 00 00: Vert resolution matched (2 ft) res - DOI
 PORAQI.pu                00 019 00 00: Acoustic porosity
 PORZC.pu                 00 020 00 00: Corrected porosity
 RWAZC.OHMM               00 021 00 00: Apparent formation water resistivity (co
 SCRA.                    00 022 00 00: 19 SHEAR TO COMPRESSIONAL SLOWNESS RATIO
 TEN.LBF                  00 023 00 00: 14 DIFFERENTIAL TENSION (INPUT; R1_MD_BA
 TEN_1.LBF                00 024 00 00: Differential Tension
 ZCOR.G/C3                00 025 00 00: 15 ZDL CORRECTION (INPUT; R1_MD_BA.LAS-Z
 ZDNC.g/cm3               00 026 00 00: Borehole size/mud weight corrected bulk mass density
~A
# ...
    6051.500
       9.875      10.362      10.362      41.655     121.113
     122.579     297.568      95.381      95.381    1347.660
       0.732       0.742       0.755       0.717       0.712
       0.720       0.731       0.739      48.745      20.261
       0.039       2.428       2.648       2.648       0.023
       2.316
    6052.000
       9.875      10.390      10.390      42.311     121.841
     123.279     299.328      98.576      98.576    1356.204
       0.723       0.737       0.742       0.706       0.700
       0.708       0.719       0.728      49.286      20.612
       0.039       2.428     -16.331     -16.331       0.021
       2.310
    6052.500
       9.875      10.423      10.423      44.771     121.353
     123.533     299.828      99.752      99.752    1364.220
       0.720       0.733       0.750       0.712       0.706
       0.714       0.725       0.735      48.923      20.675
       0.040       2.427     -46.132     -46.132       0.021
       2.309
    6053.000
       9.875      10.447      10.447      47.394     120.319
     123.685     299.470      97.980      97.980    1371.184
       0.722       0.729       0.762       0.723       0.716
       0.724       0.736       0.746      48.154      20.529
       0.040       2.421     -59.589     -59.589       0.023
       2.311
    6053.500
       9.875      10.456      10.456      48.514     119.548
     123.782     300.239      96.232      96.232    1376.841
       0.722       0.726       0.768       0.727       0.719
       0.728       0.740       0.751      47.580      20.451
       0.040       2.426     -39.645     -39.645       0.024
       2.313
    6054.000
       9.875      10.446      10.446      48.399     119.499
     123.935     302.253      97.299      97.299    1381.109
       0.720       0.724       0.768       0.725       0.717
       0.726       0.737       0.750      47.544      20.451
       0.040       2.439      -8.929      -8.929       0.025
       2.313
    6054.500
       9.875      10.418      10.418      48.186     120.135
     123.826     304.474      98.962      98.962    1383.934
       0.716       0.723       0.762       0.718       0.711
       0.720       0.731       0.744      48.017      20.493
       0.040       2.459      -2.503      -2.503       0.027
       2.312
    6055.000
       9.875      10.373      10.373      48.104     121.049
     123.519     306.685      99.215      99.215    1385.183
       0.710       0.722       0.750       0.708       0.701
       0.710       0.721       0.735      48.697      20.594
       0.040       2.483     -18.623     -18.623       0.027
       2.310
    6055.500
       9.875      10.320      10.320      48.351     121.757
     123.265     307.322      99.534      99.534    1384.623
       0.705       0.722       0.738       0.698       0.691
       0.700       0.711       0.725      49.224      20.502
       0.039       2.493     -36.230     -36.230       0.029
       2.312
    6056.000
       9.875      10.277      10.277      48.079     122.079
     123.477     307.283     101.471     101.471    1381.986
       0.704       0.724       0.731       0.692       0.686
       0.695       0.705       0.720      49.464      20.097
       0.037       2.489     -47.032     -47.032       0.033
       2.318
    6056.500
       9.875      10.259      10.259      46.997     122.150
     124.099     306.151     103.450     103.450    1377.054
       0.707       0.726       0.735       0.696       0.689
       0.699       0.709       0.724      49.516      19.778
       0.036       2.467     -51.304     -51.304       0.037
       2.324
    6057.000
       9.875      10.261      10.261      46.046     122.129
     124.324     303.702     103.507     103.507    1369.770
       0.714       0.730       0.750       0.709       0.702
       0.713       0.722       0.739      49.501      19.846
       0.037       2.443     -44.245     -44.245       0.040
       2.323
    6057.500
       9.875      10.265      10.265      45.970     122.062
     124.293     302.238     101.634     101.634    1360.280
       0.722       0.735       0.769       0.726       0.718
       0.730       0.739       0.758      49.451      19.983
       0.038       2.432     -29.195     -29.195       0.040
       2.320
    6058.000
       9.875      10.277      10.277      46.646     121.928
     123.961     300.333      99.864      99.864    1348.932
       0.730       0.741       0.780       0.735       0.727
       0.740       0.749       0.769      49.351      19.896
       0.039       2.423     -14.243     -14.243       0.039
       2.322
    6058.500
       9.875      10.306      10.306      46.697     121.805
     123.862     298.303      98.055      98.055    1336.224
       0.737       0.748       0.780       0.735       0.728
       0.740       0.749       0.770      49.260      19.910
       0.039       2.408      -9.677      -9.677       0.035
       2.321
    6059.000
       9.875      10.340      10.340      45.690     121.882
     123.559     295.944      95.514      95.514    1322.719
       0.744       0.756       0.781       0.737       0.730
       0.743       0.751       0.773      49.317      20.449
       0.041       2.395     -17.888     -17.888       0.027
       2.313
    6059.500
       9.875      10.369      10.369      43.308     122.181
     123.824     293.251      94.930      94.930    1308.999
       0.754       0.764       0.794       0.749       0.742
       0.756       0.765       0.788      49.540      21.179
       0.045       2.368     -20.998     -20.998       0.021
       2.301
    6060.000
       9.875      10.390      10.390      40.167     122.488
     123.892     290.929      96.841      96.841    1295.587
       0.765       0.772       0.813       0.767       0.760
       0.775       0.784       0.809      49.768      21.487
       0.048       2.348     -20.786     -20.786       0.020
       2.295
    6060.500
       9.875      10.396      10.396      38.017     122.498
     123.900     288.735      96.930      96.930    1282.930
       0.776       0.779       0.826       0.779       0.772
       0.787       0.797       0.823      49.775      21.385
       0.048       2.330     -29.944     -29.944       0.023
       2.297
    6061.000
       9.875      10.394      10.394      37.259     122.064
     123.469     288.677      93.654      93.654    1271.367
       0.785       0.787       0.833       0.786       0.779
       0.794       0.804       0.831      49.452      21.268
       0.048       2.338     -28.065     -28.065       0.027
       2.299
    6061.500
       9.875      10.392      10.392      38.011     121.299
     123.132     288.352      91.519      91.519    1261.142
       0.792       0.793       0.844       0.794       0.787
       0.803       0.813       0.840      48.884      21.372
       0.049       2.342      -3.001      -3.001       0.030
       2.297
    6062.000
       9.875      10.387      10.387      40.973     120.358
     122.708     287.899      92.376      92.376    1252.422
       0.798       0.798       0.856       0.804       0.797
       0.813       0.824       0.852      48.183      21.664
       0.051       2.346       7.193       7.193       0.031
       2.293
    6062.500
       9.875      10.369      10.369      43.903     119.308
     122.180     286.282      92.911      92.911    1245.329
       0.801       0.803       0.859       0.807       0.801
       0.817       0.828       0.856      47.402      21.785
       0.052       2.343      -8.145      -8.145       0.031
       2.291
    6063.000
       9.875      10.353      10.353      42.937     118.119
     121.522     284.763      91.234      91.234    1239.996
       0.804       0.806       0.854       0.803       0.797
       0.813       0.825       0.852      46.517      21.359
       0.050       2.343     -24.410     -24.410       0.031
       2.298
    6063.500
       9.875      10.357      10.357      41.378     116.823
     120.349     283.229      89.103      89.103    1236.555
       0.808       0.809       0.852       0.804       0.798
       0.814       0.826       0.853      45.553      20.635
       0.046       2.353     -45.400     -45.400       0.029
       2.310
