~Version Information
 VERS.                 2.0: 
 WRAP.                 YES: 
 END.                PETRA:GeoPLUS Corporation
~Well Information Block
#MNEM.UNIT       Data Type    Information
#---------    -------------   ---------------------------------
 STRT.F           1864.0000:
 STOP.F           7551.0000:
 STEP.F              0.5000:
 NULL.              -999.25:
 COMP.                           : COMPANY
 FLD.       SP 24                : FIELD
 LOC.                            : LOCATION
 DATE.      29-AUG-2018          : DATE
 WELL.      ST TIM  U2           : Well Name
 LABL.      ST TIM U2 #3 ST1                 : Well Label
 APIN.      170750312001         : API Number
 UWI.       170750312001         : Unique Well Number
 NUMB.      3 ST                 : Well Number
 OPER.      HEC                  : Operator Name
~Parameter Block
#MNEM.UNIT           VALUE            Description
#---------    --------------------   ---------------------------------
 EKB.F                    36.0 : KB Elevation
~Curve Information Block
#MNEM.UNIT      API CODE      Curve Description
#---------    -------------   ---------------------------------
 DEPT.F                   00 000 00 00: Depth (MD)
 BIT.IN                   00 001 00 00: Bit size
 CAL.IN                   00 002 00 00: Caliper
 CALX.IN                  00 003 00 00: 
 CNCF.PU                  00 004 00 00: 3 FIELD NORMALIZED COMPENSATED NEUTRON P
 DT24QI.us/ft             00 005 00 00: Slowness over 24-inch interval
 DTC.US/F                 00 006 00 00: 17 COMPRESSIONAL WAVE SLOWNESS (INPUT; R
 DTS.US/F                 00 007 00 00: 18 SHEAR WAVE SLOWNESS (INPUT; R1_ACOUST
 GR.API                   00 008 00 00: Gamma ray; total
 GR_1.GAPI                00 009 00 00: Gamma Ray counts
 M0C6.MMHO                00 010 00 00: 5 FOCUSED INDUCTION CONDUCTIVITY - DOI 6
 M0R2.OHMM                00 011 00 00: True focused resistivity for MITRE - DOI
 M0R6.OHMM                00 012 00 00: True focused resistivity for MITRE - DOI
 M2R1.OHMM                00 013 00 00: 6 VERT RESOLUTION MATCHED (2 FT) RES - D
 M2R2.OHMM                00 014 00 00: 7 VERT RESOLUTION MATCHED (2 FT) RES - D
 M2R3.OHMM                00 015 00 00: 8 VERT RESOLUTION MATCHED (2 FT) RES - D
 M2R6.OHMM                00 016 00 00: 9 VERT RESOLUTION MATCHED (2 FT) RES - D
 M2R9.OHMM                00 017 00 00: 10 VERT RESOLUTION MATCHED (2 FT) RES -
 M2RX.OHMM                00 018 00 00: Vert resolution matched (2 ft) res - DOI
 PORAQI.pu                00 019 00 00: Acoustic porosity
 PORZC.pu                 00 020 00 00: Corrected porosity
 RWAZC.OHMM               00 021 00 00: Apparent formation water resistivity (co
 SCRA.                    00 022 00 00: 19 SHEAR TO COMPRESSIONAL SLOWNESS RATIO
 TEN.LBF                  00 023 00 00: 14 DIFFERENTIAL TENSION (INPUT; R1_MD_BA
 TEN_1.LBF                00 024 00 00: Differential Tension
 ZCOR.G/C3                00 025 00 00: 15 ZDL CORRECTION (INPUT; R1_MD_BA.LAS-Z
 ZDNC.g/cm3               00 026 00 00: Borehole size/mud weight corrected bulk mass density
~A
# ...
    7164.000
       9.875      10.324      10.324      39.703     110.890
     111.251     267.651      98.409      98.409    1035.670
       0.956       0.966       1.015       0.952       0.940
       0.951       0.962       0.969      41.138      16.426
       0.032       2.406      -0.864      -0.864       0.026
       2.379
    7164.500
       9.875      10.285      10.285      38.452     110.174
     110.279     262.516      96.981      96.981    1025.561
       0.960       0.975       1.010       0.949       0.937
       0.948       0.959       0.967      40.605      16.470
       0.032       2.380     -23.746     -23.746       0.024
       2.378
    7165.000
       9.875      10.259      10.259      38.282     109.308
     109.017     255.868      95.385      95.385    1015.185
       0.972       0.985       1.020       0.960       0.948
       0.960       0.971       0.980      39.961      16.360
       0.032       2.347     -38.480     -38.480       0.025
       2.380
    7165.500
       9.875      10.262      10.262      38.840     108.108
     107.545     248.918      95.796      95.796    1005.339
       0.993       0.995       1.048       0.985       0.973
       0.985       0.997       1.006      39.069      16.142
       0.032       2.315     -32.547     -32.547       0.027
       2.384
    7166.000
       9.875      10.285      10.285      38.846     106.396
     105.920     242.289      96.301      96.301     997.234
       1.021       1.003       1.087       1.020       1.006
       1.019       1.032       1.042      37.795      15.825
       0.032       2.287     -22.397     -22.397       0.029
       2.389
    7166.500
       9.875      10.311      10.311      37.510     104.295
     104.566     238.551      92.586      92.586     992.311
       1.052       1.008       1.138       1.064       1.048
       1.062       1.077       1.086      36.232      15.677
       0.033       2.281     -23.280     -23.280       0.031
       2.391
    7167.000
       9.875      10.330      10.330      36.004     102.567
     103.941     237.208      84.835      84.835     991.945
       1.077       1.008       1.193       1.111       1.093
       1.106       1.122       1.131      34.946      16.203
       0.036       2.282     -19.129     -19.129       0.030
       2.383
    7167.500
       9.875      10.348      10.348      35.350     102.271
     104.407     241.066      76.922      76.922     997.144
       1.086       1.003       1.222       1.133       1.113
       1.125       1.142       1.150      34.725      17.599
       0.044       2.309      -0.680      -0.680       0.028
       2.360
    7168.000
       9.875      10.362      10.362      35.310     104.035
     105.606     246.433      72.116      72.116    1008.293
       1.073       0.992       1.202       1.112       1.092
       1.102       1.120       1.126      36.038      19.079
       0.052       2.334       5.589       5.589       0.029
       2.335
    7168.500
       9.875      10.363      10.363      35.624     107.507
     107.261     253.276      71.819      71.819    1025.031
       1.042       0.976       1.148       1.063       1.044
       1.051       1.068       1.073      38.621      19.634
       0.052       2.361     -15.001     -15.001       0.038
       2.326
    7169.000
       9.875      10.349      10.349      36.467     111.406
     109.761     261.002      75.865      75.865    1046.278
       0.999       0.956       1.086       1.007       0.990
       0.995       1.010       1.013      41.523      19.368
       0.048       2.378     -39.428     -39.428       0.049
       2.330
    7169.500
       9.875      10.332      10.332      37.680     114.455
     112.413     270.109      81.946      81.946    1070.423
       0.954       0.934       1.028       0.955       0.939
       0.942       0.956       0.958      43.791      18.886
       0.043       2.403     -45.418     -45.418       0.054
       2.338
    7170.000
       9.875      10.323      10.323      38.957     116.159
     114.570     276.738      87.058      87.058    1095.582
       0.913       0.913       0.973       0.905       0.890
       0.893       0.906       0.907      45.059      18.324
       0.038       2.415     -30.803     -30.803       0.051
       2.348
    7170.500
       9.875      10.308      10.308      39.262     116.746
     116.030     281.397      91.609      91.609    1119.884
       0.880       0.893       0.926       0.864       0.850
       0.853       0.865       0.864      45.496      17.756
       0.034       2.425     -10.951     -10.951       0.042
       2.357
    7171.000
       9.875      10.259      10.259      39.198     116.772
     117.021     284.527      97.182      97.182    1141.713
       0.858       0.876       0.898       0.840       0.827
       0.830       0.841       0.840      45.515      17.453
       0.032       2.431      -6.198      -6.198       0.029
       2.362
    7171.500
       9.875      10.185      10.185      40.916     116.756
     116.785     286.408     101.556     101.556    1159.787
       0.844       0.862       0.889       0.833       0.821
       0.825       0.835       0.834      45.503      17.347
       0.031       2.452     -20.811     -20.811       0.020
       2.364
    7172.000
       9.875      10.131      10.131      43.404     116.913
     116.632     287.461     102.889     102.889    1173.166
       0.836       0.852       0.887       0.834       0.823
       0.828       0.839       0.836      45.620      17.272
       0.031       2.465     -41.596     -41.596       0.018
       2.365
    7172.500
       9.875      10.121      10.121      44.661     117.175
     117.206     287.142     103.629     103.629    1181.128
       0.828       0.847       0.884       0.833       0.823
       0.829       0.839       0.837      45.814      17.218
       0.031       2.450     -48.120     -48.120       0.024
       2.366
    7173.000
       9.875      10.132      10.132      45.063     117.344
     117.458     285.189     104.532     104.532    1183.132
       0.818       0.845       0.869       0.821       0.812
       0.819       0.829       0.827      45.940      17.170
       0.030       2.428     -33.933     -33.933       0.031
       2.367
    7173.500
       9.875      10.146      10.146      45.382     117.165
     117.664     282.419     103.956     103.956    1178.820
       0.807       0.848       0.843       0.798       0.791
       0.800       0.809       0.807      45.808      17.028
       0.029       2.400     -20.959     -20.959       0.037
       2.369
    7174.000
       9.875      10.178      10.178      44.454     116.456
     116.556     278.978     102.413     102.413    1168.205
       0.804       0.856       0.820       0.778       0.772
       0.782       0.791       0.789      45.280      16.887
       0.028       2.394     -25.595     -25.595       0.040
       2.371
    7174.500
       9.875      10.243      10.243      41.904     115.186
     115.172     275.022      99.760      99.760    1151.830
       0.814       0.868       0.819       0.777       0.772
       0.783       0.792       0.791      44.334      17.131
       0.029       2.388     -27.979     -27.979       0.038
       2.367
    7175.000
       9.875      10.317      10.317      38.695     113.375
     113.256     268.946      95.593      95.593    1130.933
       0.841       0.884       0.859       0.813       0.807
       0.821       0.831       0.831      42.987      17.641
       0.032       2.375     -10.813     -10.813       0.036
       2.359
    7175.500
       9.875      10.361      10.361      35.687     111.104
     110.966     261.645      92.272      92.272    1107.352
       0.883       0.903       0.941       0.886       0.880
       0.898       0.908       0.909      41.297      17.435
       0.034       2.358       1.623       1.623       0.037
       2.362
    7176.000
       9.875      10.349      10.349      34.885     108.801
     109.541     255.617      92.084      92.084    1083.298
       0.928       0.923       1.033       0.966       0.959
       0.981       0.992       0.995      39.584      16.131
       0.032       2.334     -13.633     -13.633       0.043
       2.384
