~Version Information
 VERS.                 2.0: 
 WRAP.                 YES: 
 END.                PETRA:GeoPLUS Corporation
~Well Information Block
#MNEM.UNIT       Data Type    Information
#---------    -------------   ---------------------------------
 STRT.F           1864.0000:
 STOP.F           7551.0000:
 STEP.F              0.5000:
 NULL.              -999.25:
 COMP.                           : COMPANY
 FLD.       SP 24                : FIELD
 LOC.                            : LOCATION
 DATE.      29-AUG-2018          : DATE
 WELL.      ST TIM  U2           : Well Name
 LABL.      ST TIM U2 #3 ST1                 : Well Label
 APIN.      170750312001         : API Number
 UWI.       170750312001         : Unique Well Number
 NUMB.      3 ST                 : Well Number
 OPER.      HEC                  : Operator Name
~Parameter Block
#MNEM.UNIT           VALUE            Description
#---------    --------------------   ---------------------------------
 EKB.F                    36.0 : KB Elevation
~Curve Information Block
#MNEM.UNIT      API CODE      Curve Description
#---------    -------------   ---------------------------------
 DEPT.F                   00 000 00 00: Depth (MD)
 BIT.IN                   00 001 00 00: Bit size
 CAL.IN                   00 002 00 00: Caliper
 CALX.IN                  00 003 00 00: 
 CNCF.PU                  00 004 00 00: 3 FIELD NORMALIZED COMPENSATED NEUTRON P
 DT24QI.us/ft             00 005 00 00: Slowness over 24-inch interval
 DTC.US/F                 00 006 00 00: 17 COMPRESSIONAL WAVE SLOWNESS (INPUT; R
 DTS.US/F                 00 007 00 00: 18 SHEAR WAVE SLOWNESS (INPUT; R1_ACOUST
 GR.API                   00 008 00 00: Gamma ray; total
 GR_1.GAPI                00 009 00 00: Gamma Ray counts
 M0C6.MMHO                00 010 00 00: 5 FOCUSED INDUCTION CONDUCTIVITY - DOI 6
 M0R2.OHMM                00 011 00 00: True focused resistivity for MITRE - DOI
 M0R6.OHMM                00 012 00 00: True focused resistivity for MITRE - DOI
 M2R1.OHMM                00 013 00 00: 6 VERT RESOLUTION MATCHED (2 FT) RES - D
 M2R2.OHMM                00 014 00 00: 7 VERT RESOLUTION MATCHED (2 FT) RES - D
 M2R3.OHMM                00 015 00 00: 8 VERT RESOLUTION MATCHED (2 FT) RES - D
 M2R6.OHMM                00 016 00 00: 9 VERT RESOLUTION MATCHED (2 FT) RES - D
 M2R9.OHMM                00 017 00 00: 10 VERT RESOLUTION MATCHED (2 FT) RES -
 M2RX.OHMM                00 018 00 00: Vert resolution matched (2 ft) res - DOI
 PORAQI.pu                00 019 00 00: Acoustic porosity
 PORZC.pu                 00 020 00 00: Corrected porosity
 RWAZC.OHMM               00 021 00 00: Apparent formation water resistivity (co
 SCRA.                    00 022 00 00: 19 SHEAR TO COMPRESSIONAL SLOWNESS RATIO
 TEN.LBF                  00 023 00 00: 14 DIFFERENTIAL TENSION (INPUT; R1_MD_BA
 TEN_1.LBF                00 024 00 00: Differential Tension
 ZCOR.G/C3                00 025 00 00: 15 ZDL CORRECTION (INPUT; R1_MD_BA.LAS-Z
 ZDNC.g/cm3               00 026 00 00: Borehole size/mud weight corrected bulk mass density
~A
# ...
    1964.000
       9.875      10.424      10.424      60.310      81.266
     156.398     -999.25      31.392      31.392     -999.25
     -999.25     -999.25     -999.25     -999.25     -999.25
     -999.25     -999.25     -999.25      19.097      51.907
     -999.25     -999.25      -2.982      -2.982      -0.546
       1.794
    1964.500
       9.875      10.414      10.414      59.861      90.065
     156.363     -999.25      30.958      30.958     -999.25
     -999.25     -999.25     -999.25     -999.25     -999.25
     -999.25     -999.25     -999.25      25.643      52.225
     -999.25     -999.25      -5.578      -5.578      -0.549
       1.788
    1965.000
       9.875      10.405      10.405      59.829      96.288
     156.230     -999.25      30.048      30.048     -999.25
     -999.25     -999.25     -999.25     -999.25     -999.25
     -999.25     -999.25     -999.25      30.274      52.302
     -999.25     -999.25      -6.876      -6.876      -0.550
       1.787
    1965.500
       9.875      10.400      10.400      58.028      99.286
     155.982     -999.25      29.742      29.742     -999.25
     -999.25     -999.25     -999.25     -999.25     -999.25
     -999.25     -999.25     -999.25      32.505      52.635
     -999.25     -999.25      -7.031      -7.031      -0.553
       1.782
    1966.000
       9.875      10.403      10.403      54.562     100.221
     155.416     -999.25      29.508      29.508     -999.25
     -999.25     -999.25     -999.25     -999.25     -999.25
     -999.25     -999.25     -999.25      33.200      53.239
     -999.25     -999.25      -4.805      -4.805      -0.557
       1.772
    1966.500
       9.875      10.419      10.419      53.570     100.879
     155.023     -999.25      29.225      29.225     -999.25
     -999.25     -999.25     -999.25     -999.25     -999.25
     -999.25     -999.25     -999.25      33.690      53.599
     -999.25     -999.25      -2.273      -2.273      -0.560
       1.766
    1967.000
       9.875      10.438      10.438      57.030     102.060
     154.319     -999.25      29.126      29.126     -999.25
     -999.25     -999.25     -999.25     -999.25     -999.25
     -999.25     -999.25     -999.25      34.569      53.454
     -999.25     -999.25      -6.885      -6.885      -0.560
       1.768
    1967.500
       9.875      10.451      10.451      60.901     102.748
     154.254     -999.25      29.178      29.178     -999.25
     -999.25     -999.25     -999.25     -999.25     -999.25
     -999.25     -999.25     -999.25      35.080      53.105
     -999.25     -999.25     -13.631     -13.631      -0.558
       1.774
    1968.000
       9.875      10.458      10.458      61.114     101.752
     154.456     -999.25      29.359      29.359     -999.25
     -999.25     -999.25     -999.25     -999.25     -999.25
     -999.25     -999.25     -999.25      34.339      52.994
     -999.25     -999.25      -9.510      -9.510      -0.556
       1.776
    1968.500
       9.875      10.455      10.455      58.943      99.748
     154.977     -999.25      29.177      29.177     -999.25
     -999.25     -999.25     -999.25     -999.25     -999.25
     -999.25     -999.25     -999.25      32.848      53.216
     -999.25     -999.25      -3.795      -3.795      -0.555
       1.772
    1969.000
       9.875      10.444      10.444      56.818      98.731
     155.278     -999.25      28.892      28.892     -999.25
     -999.25     -999.25     -999.25     -999.25     -999.25
     -999.25     -999.25     -999.25      32.092      53.433
     -999.25     -999.25     -10.814     -10.814      -0.555
       1.768
    1969.500
       9.875      10.438      10.438      57.591      99.583
     155.574     -999.25      28.845      28.845     -999.25
     -999.25     -999.25     -999.25     -999.25     -999.25
     -999.25     -999.25     -999.25      32.725      53.368
     -999.25     -999.25     -21.631     -21.631      -0.553
       1.769
    1970.000
       9.875      10.433      10.433      61.497     100.629
     155.513     -999.25      29.031      29.031     -999.25
     -999.25     -999.25     -999.25     -999.25     -999.25
     -999.25     -999.25     -999.25      33.504      53.089
     -999.25     -999.25     -21.794     -21.794      -0.551
       1.774
    1970.500
       9.875      10.425      10.425      63.095      98.342
     155.728     -999.25      29.391      29.391     -999.25
     -999.25     -999.25     -999.25     -999.25     -999.25
     -999.25     -999.25     -999.25      31.802      52.765
     -999.25     -999.25     -15.616     -15.616      -0.550
       1.779
    1971.000
       9.875      10.427      10.427      57.786      90.518
     156.294     -999.25      29.557      29.557     -999.25
     -999.25     -999.25     -999.25     -999.25     -999.25
     -999.25     -999.25     -999.25      25.980      52.432
     -999.25     -999.25     -12.436     -12.436      -0.550
       1.785
    1971.500
       9.875      10.438      10.438      53.264      79.257
     155.815     -999.25      29.271      29.271     -999.25
     -999.25     -999.25     -999.25     -999.25     -999.25
     -999.25     -999.25     -999.25      17.602      52.101
     -999.25     -999.25     -14.432     -14.432      -0.549
       1.790
    1972.000
       9.875      10.445      10.445      54.937      69.346
     155.387     -999.25      29.239      29.239     -999.25
     -999.25     -999.25     -999.25     -999.25     -999.25
     -999.25     -999.25     -999.25      10.227      51.900
     -999.25     -999.25     -18.467     -18.467      -0.549
       1.794
    1972.500
       9.875      10.444      10.444      58.603      64.488
     154.961     -999.25      29.648      29.648     -999.25
     -999.25     -999.25     -999.25     -999.25     -999.25
     -999.25     -999.25     -999.25       6.613      51.884
     -999.25     -999.25     -19.054     -19.054      -0.550
       1.794
    1973.000
       9.875      10.443      10.443      57.913      65.383
     154.974     -999.25      29.911      29.911     -999.25
     -999.25     -999.25     -999.25     -999.25     -999.25
     -999.25     -999.25     -999.25       7.279      51.950
     -999.25     -999.25     -11.889     -11.889      -0.550
       1.793
    1973.500
       9.875      10.446      10.446      56.728      70.369
     154.856     -999.25      29.689      29.689     -999.25
     -999.25     -999.25     -999.25     -999.25     -999.25
     -999.25     -999.25     -999.25      10.989      51.899
     -999.25     -999.25      -5.975      -5.975      -0.548
       1.794
    1974.000
       9.875      10.447      10.447      58.298      77.539
     154.752     -999.25      28.851      28.851     -999.25
     -999.25     -999.25     -999.25     -999.25     -999.25
     -999.25     -999.25     -999.25      16.324      51.541
     -999.25     -999.25      -8.141      -8.141      -0.544
       1.800
    1974.500
       9.875      10.440      10.440      59.264      86.449
     154.481     -999.25      28.038      28.038     -999.25
     -999.25     -999.25     -999.25     -999.25     -999.25
     -999.25     -999.25     -999.25      22.953      50.890
     -999.25     -999.25     -11.303     -11.303      -0.539
       1.810
    1975.000
       9.875      10.429      10.429      56.774      97.113
     154.211     -999.25      27.634      27.634     -999.25
     -999.25     -999.25     -999.25     -999.25     -999.25
     -999.25     -999.25     -999.25      30.888      50.169
     -999.25     -999.25      -7.706      -7.706      -0.534
       1.822
    1975.500
       9.875      10.425      10.425      54.461     107.858
     154.110     -999.25      27.368      27.368     -999.25
     -999.25     -999.25     -999.25     -999.25     -999.25
     -999.25     -999.25     -999.25      38.883      49.508
     -999.25     -999.25      -4.054      -4.054      -0.530
       1.833
    1976.000
       9.875      10.425      10.425      56.298     116.067
     154.522     -999.25      27.601      27.601     -999.25
     -999.25     -999.25     -999.25     -999.25     -999.25
     -999.25     -999.25     -999.25      44.990      48.788
     -999.25     -999.25      -6.873      -6.873      -0.526
       1.845
