~Version Information
 VERS.                 2.0: 
 WRAP.                 YES: 
 END.                PETRA:GeoPLUS Corporation
~Well Information Block
#MNEM.UNIT       Data Type    Information
#---------    -------------   ---------------------------------
 STRT.F           1864.0000:
 STOP.F           7551.0000:
 STEP.F              0.5000:
 NULL.              -999.25:
 COMP.                           : COMPANY
 FLD.       SP 24                : FIELD
 LOC.                            : LOCATION
 DATE.      29-AUG-2018          : DATE
 WELL.      ST TIM  U2           : Well Name
 LABL.      ST TIM U2 #3 ST1                 : Well Label
 APIN.      170750312001         : API Number
 UWI.       170750312001         : Unique Well Number
 NUMB.      3 ST                 : Well Number
 OPER.      HEC                  : Operator Name
~Parameter Block
#MNEM.UNIT           VALUE            Description
#---------    --------------------   ---------------------------------
 EKB.F                    36.0 : KB Elevation
~Curve Information Block
#MNEM.UNIT      API CODE      Curve Description
#---------    -------------   ---------------------------------
 DEPT.F                   00 000 00 00: Depth (MD)
 BIT.IN                   00 001 00 00: Bit size
 CAL.IN                   00 002 00 00: Caliper
 CALX.IN                  00 003 00 00: 
 CNCF.PU                  00 004 00 00: 3 FIELD NORMALIZED COMPENSATED NEUTRON P
 DT24QI.us/ft             00 005 00 00: Slowness over 24-inch interval
 DTC.US/F                 00 006 00 00: 17 COMPRESSIONAL WAVE SLOWNESS (INPUT; R
 DTS.US/F                 00 007 00 00: 18 SHEAR WAVE SLOWNESS (INPUT; R1_ACOUST
 GR.API                   00 008 00 00: Gamma ray; total
 GR_1.GAPI                00 009 00 00: Gamma Ray counts
 M0C6.MMHO                00 010 00 00: 5 FOCUSED INDUCTION CONDUCTIVITY - DOI 6
 M0R2.OHMM                00 011 00 00: True focused resistivity for MITRE - DOI
 M0R6.OHMM                00 012 00 00: True focused resistivity for MITRE - DOI
 M2R1.OHMM                00 013 00 00: 6 VERT RESOLUTION MATCHED (2 FT) RES - D
 M2R2.OHMM                00 014 00 00: 7 VERT RESOLUTION MATCHED (2 FT) RES - D
 M2R3.OHMM                00 015 00 00: 8 VERT RESOLUTION MATCHED (2 FT) RES - D
 M2R6.OHMM                00 016 00 00: 9 VERT RESOLUTION MATCHED (2 FT) RES - D
 M2R9.OHMM                00 017 00 00: 10 VERT RESOLUTION MATCHED (2 FT) RES -
 M2RX.OHMM                00 018 00 00: Vert resolution matched (2 ft) res - DOI
 PORAQI.pu                00 019 00 00: Acoustic porosity
 PORZC.pu                 00 020 00 00: Corrected porosity
 RWAZC.OHMM               00 021 00 00: Apparent formation water resistivity (co
 SCRA.                    00 022 00 00: 19 SHEAR TO COMPRESSIONAL SLOWNESS RATIO
 TEN.LBF                  00 023 00 00: 14 DIFFERENTIAL TENSION (INPUT; R1_MD_BA
 TEN_1.LBF                00 024 00 00: Differential Tension
 ZCOR.G/C3                00 025 00 00: 15 ZDL CORRECTION (INPUT; R1_MD_BA.LAS-Z
 ZDNC.g/cm3               00 026 00 00: Borehole size/mud weight corrected bulk mass density
~A
# ...
    3451.500
       9.875      12.877      12.877      45.630     135.312
     128.277     378.900      39.859      39.859    2222.957
       0.481       0.450       0.568       0.489       0.465
       0.463       0.468       0.478      59.309      34.217
       0.077       2.954     -26.782     -26.782       0.075
       2.085
    3452.000
       9.875      12.566      12.566      44.898     135.664
     128.941     382.476      42.031      42.031    2222.212
       0.473       0.450       0.550       0.477       0.457
       0.456       0.460       0.471      59.571      32.740
       0.069       2.966     -33.339     -33.339       0.077
       2.110
    3452.500
       9.875      12.308      12.308      44.431     134.667
     129.876     382.360      45.555      45.555    2216.728
       0.465       0.451       0.530       0.465       0.447
       0.447       0.452       0.462      58.830      30.999
       0.060       2.944     -30.068     -30.068       0.075
       2.139
    3453.000
       9.875      11.990      11.990      44.694     133.531
     130.852     383.932      48.563      48.563    2205.003
       0.459       0.454       0.513       0.455       0.440
       0.441       0.446       0.457      57.984      30.608
       0.058       2.934     -23.419     -23.419       0.068
       2.145
    3453.500
       9.875      11.655      11.655      45.273     132.879
     131.173     390.173      50.690      50.690    2185.891
       0.457       0.457       0.504       0.451       0.439
       0.442       0.447       0.458      57.499      31.409
       0.061       2.975     -22.253     -22.253       0.059
       2.132
    3454.000
       9.875      11.438      11.438      45.720     132.725
     131.592     394.611      53.581      53.581    2159.171
       0.460       0.463       0.505       0.457       0.447
       0.452       0.458       0.470      57.385      31.831
       0.065       2.999     -24.946     -24.946       0.056
       2.125
    3454.500
       9.875      11.215      11.215      45.792     132.862
     132.104     394.628      58.849      58.849    2125.753
       0.469       0.470       0.513       0.471       0.464
       0.470       0.478       0.491      57.486      30.720
       0.063       2.987     -22.791     -22.791       0.059
       2.143
    3455.000
       9.875      10.926      10.926      45.677     133.270
     133.085     397.119      66.471      66.471    2087.682
       0.479       0.479       0.520       0.487       0.483
       0.492       0.500       0.514      57.790      28.609
       0.056       2.984     -14.331     -14.331       0.061
       2.178
    3455.500
       9.875      10.722      10.722      46.341     134.215
     134.021     402.466      74.850      74.850    2047.750
       0.490       0.488       0.519       0.497       0.498
       0.509       0.518       0.533      58.493      27.107
       0.052       3.003      -7.758      -7.758       0.054
       2.203
    3456.000
       9.875      10.641      10.641      47.395     135.844
     134.774     408.017      81.952      81.952    2009.025
       0.498       0.498       0.513       0.502       0.506
       0.519       0.529       0.544      59.705      26.896
       0.052       3.027     -11.261     -11.261       0.042
       2.206
    3456.500
       9.875      10.604      10.604      48.928     137.946
     135.171     414.156      86.409      86.409    1974.311
       0.505       0.507       0.508       0.505       0.514
       0.528       0.538       0.554      61.269      27.258
       0.055       3.064     -16.975     -16.975       0.033
       2.200
    3457.000
       9.875      10.620      10.620      51.252     139.957
     135.550     418.706      88.627      88.627    1945.749
       0.510       0.514       0.508       0.511       0.523
       0.538       0.549       0.565      62.765      27.578
       0.057       3.089     -18.944     -18.944       0.029
       2.195
    3457.500
       9.875      10.704      10.704      52.815     141.351
     136.177     421.865      89.848      89.848    1924.633
       0.514       0.520       0.511       0.517       0.531
       0.547       0.558       0.575      63.803      27.810
       0.059       3.098     -20.545     -20.545       0.027
       2.191
    3458.000
       9.875      10.833      10.833      52.327     141.897
     136.709     421.046      89.485      89.485    1911.396
       0.517       0.523       0.514       0.520       0.535
       0.552       0.563       0.580      64.209      27.977
       0.060       3.080     -24.404     -24.404       0.026
       2.188
    3458.500
       9.875      10.984      10.984      52.217     141.677
     136.942     419.294      86.849      86.849    1905.812
       0.519       0.525       0.518       0.522       0.537
       0.552       0.565       0.581      64.046      28.015
       0.061       3.062     -25.964     -25.964       0.025
       2.188
    3459.000
       9.875      11.146      11.146      52.608     140.831
     135.736     415.883      82.437      82.437    1907.212
       0.521       0.524       0.524       0.523       0.536
       0.551       0.564       0.580      63.416      28.007
       0.061       3.064     -20.065     -20.065       0.025
       2.188
    3459.500
       9.875      11.289      11.289      50.740     139.616
     134.298     414.009      76.225      76.225    1914.827
       0.523       0.522       0.534       0.526       0.538
       0.552       0.565       0.581      62.512      28.141
       0.061       3.083     -13.866     -13.866       0.026
       2.186
    3460.000
       9.875      11.360      11.360      46.901     138.447
     133.166     411.884      68.678      68.678    1927.979
       0.524       0.519       0.550       0.535       0.545
       0.559       0.572       0.588      61.642      28.375
       0.063       3.093     -14.436     -14.436       0.028
       2.182
    3460.500
       9.875      11.319      11.319      44.258     137.034
     133.943     415.599      62.292      62.292    1946.375
       0.522       0.514       0.563       0.543       0.552
       0.565       0.579       0.595      60.591      28.370
       0.064       3.103     -16.585     -16.585       0.034
       2.182
    3461.000
       9.875      11.183      11.183      44.968     134.217
     134.726     417.523      58.948      58.948    1970.186
       0.517       0.508       0.560       0.538       0.547
       0.559       0.572       0.588      58.495      28.116
       0.062       3.099     -16.202     -16.202       0.041
       2.186
    3461.500
       9.875      11.028      11.028      46.604     129.084
     135.187     421.575      59.005      59.005    2000.291
       0.507       0.500       0.536       0.516       0.524
       0.534       0.547       0.562      54.675      28.053
       0.059       3.118     -18.986     -18.986       0.046
       2.187
    3462.000
       9.875      10.926      10.926      47.084     122.126
     135.830     424.711      62.741      62.741    2038.204
       0.498       0.491       0.507       0.491       0.498
       0.506       0.518       0.533      49.498      28.389
       0.057       3.127     -25.165     -25.165       0.044
       2.182
    3462.500
       9.875      10.883      10.883      47.488     115.782
     135.981     426.378      68.461      68.461    2086.133
       0.490       0.479       0.495       0.481       0.487
       0.493       0.505       0.520      44.778      28.819
       0.058       3.136     -25.477     -25.477       0.039
       2.174
    3463.000
       9.875      10.873      10.873      47.415     113.218
     136.144     427.112      72.128      72.128    2146.537
       0.485       0.466       0.503       0.486       0.491
       0.497       0.509       0.523      42.871      29.086
       0.059       3.137     -20.987     -20.987       0.032
       2.170
    3463.500
       9.875      10.875      10.875      44.978     115.726
     135.298     417.628      71.893      71.893    2221.823
       0.478       0.450       0.514       0.493       0.496
       0.500       0.513       0.527      44.737      29.258
       0.061       3.087     -24.241     -24.241       0.026
       2.167
