~Version Information
 VERS.                 2.0: 
 WRAP.                 YES: 
 END.                PETRA:GeoPLUS Corporation
~Well Information Block
#MNEM.UNIT       Data Type    Information
#---------    -------------   ---------------------------------
 STRT.F           1864.0000:
 STOP.F           7551.0000:
 STEP.F              0.5000:
 NULL.              -999.25:
 COMP.                           : COMPANY
 FLD.       SP 24                : FIELD
 LOC.                            : LOCATION
 DATE.      29-AUG-2018          : DATE
 WELL.      ST TIM  U2           : Well Name
 LABL.      ST TIM U2 #3 ST1                 : Well Label
 APIN.      170750312001         : API Number
 UWI.       170750312001         : Unique Well Number
 NUMB.      3 ST                 : Well Number
 OPER.      HEC                  : Operator Name
~Parameter Block
#MNEM.UNIT           VALUE            Description
#---------    --------------------   ---------------------------------
 EKB.F                    36.0 : KB Elevation
~Curve Information Block
#MNEM.UNIT      API CODE      Curve Description
#---------    -------------   ---------------------------------
 DEPT.F                   00 000 00 00: Depth (MD)
 BIT.IN                   00 001 00 00: Bit size
 CAL.IN                   00 002 00 00: Caliper
 CALX.IN                  00 003 00 00: 
 CNCF.PU                  00 004 00 00: 3 FIELD NORMALIZED COMPENSATED NEUTRON P
 DT24QI.us/ft             00 005 00 00: Slowness over 24-inch interval
 DTC.US/F                 00 006 00 00: 17 COMPRESSIONAL WAVE SLOWNESS (INPUT; R
 DTS.US/F                 00 007 00 00: 18 SHEAR WAVE SLOWNESS (INPUT; R1_ACOUST
 GR.API                   00 008 00 00: Gamma ray; total
 GR_1.GAPI                00 009 00 00: Gamma Ray counts
 M0C6.MMHO                00 010 00 00: 5 FOCUSED INDUCTION CONDUCTIVITY - DOI 6
 M0R2.OHMM                00 011 00 00: True focused resistivity for MITRE - DOI
 M0R6.OHMM                00 012 00 00: True focused resistivity for MITRE - DOI
 M2R1.OHMM                00 013 00 00: 6 VERT RESOLUTION MATCHED (2 FT) RES - D
 M2R2.OHMM                00 014 00 00: 7 VERT RESOLUTION MATCHED (2 FT) RES - D
 M2R3.OHMM                00 015 00 00: 8 VERT RESOLUTION MATCHED (2 FT) RES - D
 M2R6.OHMM                00 016 00 00: 9 VERT RESOLUTION MATCHED (2 FT) RES - D
 M2R9.OHMM                00 017 00 00: 10 VERT RESOLUTION MATCHED (2 FT) RES -
 M2RX.OHMM                00 018 00 00: Vert resolution matched (2 ft) res - DOI
 PORAQI.pu                00 019 00 00: Acoustic porosity
 PORZC.pu                 00 020 00 00: Corrected porosity
 RWAZC.OHMM               00 021 00 00: Apparent formation water resistivity (co
 SCRA.                    00 022 00 00: 19 SHEAR TO COMPRESSIONAL SLOWNESS RATIO
 TEN.LBF                  00 023 00 00: 14 DIFFERENTIAL TENSION (INPUT; R1_MD_BA
 TEN_1.LBF                00 024 00 00: Differential Tension
 ZCOR.G/C3                00 025 00 00: 15 ZDL CORRECTION (INPUT; R1_MD_BA.LAS-Z
 ZDNC.g/cm3               00 026 00 00: Borehole size/mud weight corrected bulk mass density
~A
# ...
    3076.500
       9.875      18.941      18.941      47.563     146.256
     145.578     489.449      23.980      23.980    3455.108
       0.303       0.289       0.325       0.302       0.293
       0.289       0.290       0.293      67.452      38.026
       0.059       3.362     -25.358     -25.358       0.020
       2.023
    3077.000
       9.875      19.157      19.157      48.533     145.055
     144.563     488.964      24.224      24.224    3450.522
       0.301       0.290       0.318       0.298       0.289
       0.286       0.286       0.289      66.559      38.042
       0.058       3.382     -22.578     -22.578       0.021
       2.022
    3077.500
       9.875      19.322      19.322      48.435     144.251
     144.193     486.417      24.911      24.911    3446.671
       0.300       0.290       0.314       0.295       0.287
       0.284       0.284       0.287      65.960      38.142
       0.058       3.373     -12.544     -12.544       0.023
       2.021
    3078.000
       9.875      19.375      19.375      47.069     144.606
     145.077     487.690      25.453      25.453    3442.581
       0.300       0.290       0.315       0.296       0.288
       0.285       0.285       0.288      66.225      39.130
       0.062       3.362     -13.189     -13.189       0.025
       2.004
    3078.500
       9.875      19.322      19.322      46.430     145.974
     146.226     490.642      25.136      25.136    3437.032
       0.301       0.291       0.319       0.299       0.290
       0.287       0.287       0.290      67.243      41.398
       0.070       3.355     -22.060     -22.060       0.025
       1.967
    3079.000
       9.875      19.324      19.324      48.461     147.728
     147.843     492.846      24.666      24.666    3429.032
       0.302       0.292       0.323       0.301       0.292
       0.288       0.288       0.291      68.547      44.022
       0.080       3.334     -30.060     -30.060       0.028
       1.924
    3079.500
       9.875      19.495      19.495      52.136     149.273
     148.237     495.469      24.882      24.882    3418.037
       0.304       0.293       0.327       0.302       0.292
       0.288       0.288       0.291      69.697      45.935
       0.088       3.342     -34.914     -34.914       0.035
       1.892
    3080.000
       9.875      19.750      19.750      54.550     150.320
     148.671     497.584      25.401      25.401    3404.257
       0.307       0.294       0.333       0.305       0.293
       0.289       0.289       0.292      70.477      47.103
       0.093       3.347     -36.434     -36.434       0.042
       1.873
    3080.500
       9.875      19.921      19.921      54.868     151.025
     148.036     499.871      25.895      25.895    3388.564
       0.312       0.295       0.344       0.311       0.299
       0.294       0.294       0.296      71.001      47.898
       0.098       3.377     -25.239     -25.239       0.045
       1.860
    3081.000
       9.875      19.886      19.886      54.519     151.521
     149.121     498.472      26.825      26.825    3372.560
       0.319       0.297       0.357       0.322       0.307
       0.302       0.301       0.304      71.370      47.925
       0.101       3.343      -8.575      -8.575       0.045
       1.859
    3081.500
       9.875      19.616      19.616      51.137     151.820
     148.646     498.092      27.918      27.918    3358.014
       0.325       0.298       0.370       0.331       0.315
       0.309       0.309       0.312      71.592      46.343
       0.096       3.351      -4.236      -4.236       0.047
       1.885
    3082.000
       9.875      19.101      19.101      45.174     152.079
     148.271     496.565      28.967      28.967    3346.713
       0.329       0.299       0.376       0.336       0.319
       0.313       0.312       0.315      71.785      43.469
       0.085       3.349      -9.857      -9.857       0.050
       1.933
    3082.500
       9.875      18.418      18.418      41.244     152.139
     146.029     497.647      29.947      29.947    3339.764
       0.331       0.299       0.375       0.335       0.319
       0.312       0.311       0.315      71.829      41.005
       0.075       3.408      -7.655      -7.655       0.047
       1.973
    3083.000
       9.875      17.629      17.629      41.253     151.415
     144.734     495.235      30.711      30.711    3337.690
       0.329       0.300       0.370       0.331       0.315
       0.308       0.308       0.311      71.291      39.903
       0.070       3.422       3.801       3.801       0.034
       1.992
    3083.500
       9.875      16.793      16.793      43.349     149.654
     143.637     487.079      31.137      31.137    3340.125
       0.326       0.299       0.364       0.327       0.311
       0.305       0.304       0.307      69.980      39.413
       0.067       3.391      10.075      10.075       0.020
       2.000
    3084.000
       9.875      16.197      16.197      44.476     147.057
     142.502     480.669      31.660      31.660    3346.394
       0.323       0.299       0.360       0.323       0.308
       0.302       0.302       0.305      68.048      39.019
       0.065       3.373       3.996       3.996       0.013
       2.006
    3084.500
       9.875      16.140      16.140      43.808     143.950
     141.062     473.920      32.413      32.413    3355.534
       0.321       0.298       0.356       0.321       0.306
       0.300       0.300       0.304      65.736      38.746
       0.064       3.360      -7.833      -7.833       0.016
       2.011
    3085.000
       9.875      16.447      16.447      43.476     141.014
     140.936     473.102      32.516      32.516    3366.938
       0.319       0.297       0.353       0.319       0.305
       0.299       0.299       0.303      63.552      38.367
       0.062       3.357     -14.504     -14.504       0.025
       2.017
    3085.500
       9.875      16.663      16.663      44.499     139.066
     141.183     476.960      31.850      31.850    3380.094
       0.317       0.296       0.349       0.317       0.304
       0.298       0.299       0.302      62.103      38.053
       0.061       3.378     -14.737     -14.737       0.033
       2.022
    3086.000
       9.875      16.606      16.606      45.540     138.780
     141.291     483.454      31.524      31.524    3394.863
       0.315       0.295       0.344       0.315       0.302
       0.297       0.298       0.301      61.890      38.099
       0.061       3.422     -15.768     -15.768       0.034
       2.021
    3086.500
       9.875      16.427      16.427      45.095     140.588
     142.024     484.180      31.935      31.935    3410.909
       0.313       0.293       0.339       0.312       0.300
       0.295       0.296       0.300      63.235      38.229
       0.061       3.409     -19.074     -19.074       0.030
       2.019
    3087.000
       9.875      16.373      16.373      43.040     143.852
     143.712     488.877      32.106      32.106    3427.885
       0.309       0.292       0.334       0.309       0.297
       0.293       0.293       0.297      65.664      38.143
       0.060       3.402     -20.019     -20.019       0.027
       2.021
    3087.500
       9.875      16.510      16.510      41.304     146.821
     144.777     489.955      31.733      31.733    3444.989
       0.306       0.290       0.330       0.305       0.293
       0.289       0.290       0.294      67.873      38.091
       0.060       3.384     -17.532     -17.532       0.024
       2.022
    3088.000
       9.875      16.716      16.716      42.240     148.022
     144.519     490.000      30.969      30.969    3461.452
       0.302       0.289       0.326       0.300       0.290
       0.286       0.287       0.290      68.766      38.330
       0.060       3.391     -16.474     -16.474       0.022
       2.018
    3088.500
       9.875      16.879      16.879      44.697     147.372
     143.398     484.871      30.278      30.278    3476.404
       0.299       0.288       0.322       0.296       0.286
       0.282       0.283       0.287      68.283      38.677
       0.060       3.381     -13.760     -13.760       0.022
       2.012
