~Version Information
 VERS.                 2.0: 
 WRAP.                 YES: 
 END.                PETRA:GeoPLUS Corporation
~Well Information Block
#MNEM.UNIT       Data Type    Information
#---------    -------------   ---------------------------------
 STRT.F           1864.0000:
 STOP.F           7551.0000:
 STEP.F              0.5000:
 NULL.              -999.25:
 COMP.                           : COMPANY
 FLD.       SP 24                : FIELD
 LOC.                            : LOCATION
 DATE.      29-AUG-2018          : DATE
 WELL.      ST TIM  U2           : Well Name
 LABL.      ST TIM U2 #3 ST1                 : Well Label
 APIN.      170750312001         : API Number
 UWI.       170750312001         : Unique Well Number
 NUMB.      3 ST                 : Well Number
 OPER.      HEC                  : Operator Name
~Parameter Block
#MNEM.UNIT           VALUE            Description
#---------    --------------------   ---------------------------------
 EKB.F                    36.0 : KB Elevation
~Curve Information Block
#MNEM.UNIT      API CODE      Curve Description
#---------    -------------   ---------------------------------
 DEPT.F                   00 000 00 00: Depth (MD)
 BIT.IN                   00 001 00 00: Bit size
 CAL.IN                   00 002 00 00: Caliper
 CALX.IN                  00 003 00 00: 
 CNCF.PU                  00 004 00 00: 3 FIELD NORMALIZED COMPENSATED NEUTRON P
 DT24QI.us/ft             00 005 00 00: Slowness over 24-inch interval
 DTC.US/F                 00 006 00 00: 17 COMPRESSIONAL WAVE SLOWNESS (INPUT; R
 DTS.US/F                 00 007 00 00: 18 SHEAR WAVE SLOWNESS (INPUT; R1_ACOUST
 GR.API                   00 008 00 00: Gamma ray; total
 GR_1.GAPI                00 009 00 00: Gamma Ray counts
 M0C6.MMHO                00 010 00 00: 5 FOCUSED INDUCTION CONDUCTIVITY - DOI 6
 M0R2.OHMM                00 011 00 00: True focused resistivity for MITRE - DOI
 M0R6.OHMM                00 012 00 00: True focused resistivity for MITRE - DOI
 M2R1.OHMM                00 013 00 00: 6 VERT RESOLUTION MATCHED (2 FT) RES - D
 M2R2.OHMM                00 014 00 00: 7 VERT RESOLUTION MATCHED (2 FT) RES - D
 M2R3.OHMM                00 015 00 00: 8 VERT RESOLUTION MATCHED (2 FT) RES - D
 M2R6.OHMM                00 016 00 00: 9 VERT RESOLUTION MATCHED (2 FT) RES - D
 M2R9.OHMM                00 017 00 00: 10 VERT RESOLUTION MATCHED (2 FT) RES -
 M2RX.OHMM                00 018 00 00: Vert resolution matched (2 ft) res - DOI
 PORAQI.pu                00 019 00 00: Acoustic porosity
 PORZC.pu                 00 020 00 00: Corrected porosity
 RWAZC.OHMM               00 021 00 00: Apparent formation water resistivity (co
 SCRA.                    00 022 00 00: 19 SHEAR TO COMPRESSIONAL SLOWNESS RATIO
 TEN.LBF                  00 023 00 00: 14 DIFFERENTIAL TENSION (INPUT; R1_MD_BA
 TEN_1.LBF                00 024 00 00: Differential Tension
 ZCOR.G/C3                00 025 00 00: 15 ZDL CORRECTION (INPUT; R1_MD_BA.LAS-Z
 ZDNC.g/cm3               00 026 00 00: Borehole size/mud weight corrected bulk mass density
~A
# ...
    7539.000
       9.875      10.154      10.154      43.370     112.666
     111.970     256.977     102.141     102.141    1031.775
       0.981       0.969       1.060       0.986       0.969
       0.976       0.986       0.985      42.460      16.231
       0.032       2.295      29.729      29.729       0.044
       2.382
    7539.500
       9.875      10.117      10.117      43.502     112.238
     111.837     257.191     101.227     101.227    1031.388
       0.984       0.970       1.051       0.981       0.965
       0.972       0.981       0.981      42.141      15.994
       0.031       2.300      37.169      37.169       0.052
       2.386
    7540.000
       9.875      10.044      10.044      44.168     111.673
     111.444     258.229     100.291     100.291    1031.434
       0.988       0.970       1.053       0.987       0.972
       0.978       0.988       0.987      41.721      15.707
       0.030       2.317      -5.074      -5.074       0.063
       2.391
    7540.500
       9.875       9.967       9.967      45.118     111.355
     111.877     258.509      98.668      98.668    1032.202
       0.991       0.969       1.059       0.996       0.981
       0.988       0.998       0.997      41.484      15.715
       0.030       2.311     -36.971     -36.971       0.073
       2.391
    7541.000
       9.875       9.940       9.940      44.414     111.348
     112.242     259.533      98.026      98.026    1033.933
       0.991       0.967       1.058       0.996       0.983
       0.989       1.000       0.999      41.479      16.112
       0.032       2.312     -33.991     -33.991       0.075
       2.384
    7541.500
       9.875       9.990       9.990      42.786     111.420
     112.596     261.042      98.135      98.135    1036.710
       0.986       0.965       1.052       0.989       0.975
       0.981       0.992       0.991      41.533      16.450
       0.033       2.318     -28.216     -28.216       0.071
       2.379
    7542.000
       9.875      10.083      10.083      42.509     111.372
     112.664     263.936      98.374      98.374    1040.396
       0.978       0.961       1.046       0.979       0.964
       0.970       0.981       0.980      41.497      16.420
       0.032       2.343     -28.198     -28.198       0.062
       2.379
    7542.500
       9.875      10.151      10.151      43.276     111.193
     112.740     265.832      99.803      99.803    1044.663
       0.970       0.957       1.041       0.971       0.956
       0.961       0.972       0.971      41.364      16.511
       0.033       2.358      -7.198      -7.198       0.049
       2.378
    7543.000
       9.875      10.164      10.164      43.561     110.964
     112.381     267.673     102.517     102.517    1049.108
       0.963       0.953       1.038       0.965       0.949
       0.954       0.965       0.964      41.193      17.096
       0.035       2.382      32.963      32.963       0.036
       2.368
    7543.500
       9.875      10.133      10.133      42.881     110.682
     112.054     268.856     104.231     104.231    1053.370
       0.957       0.949       1.031       0.960       0.943
       0.948       0.959       0.958      40.984      17.355
       0.036       2.399      49.194      49.194       0.033
       2.364
    7544.000
       9.875      10.073      10.073      40.852     110.315
     111.516     269.714     103.764     103.764    1057.245
       0.954       0.946       1.023       0.953       0.937
       0.942       0.953       0.952      40.711      16.651
       0.033       2.419      18.432      18.432       0.043
       2.375
    7544.500
       9.875      10.015      10.015      38.293     109.984
     111.483     269.575     101.873     101.873    1060.723
       0.952       0.943       1.015       0.949       0.933
       0.938       0.949       0.948      40.464      15.874
       0.029       2.418     -23.918     -23.918       0.056
       2.388
    7545.000
       9.875       9.990       9.990      37.410     109.936
     111.997     268.468      99.651      99.651    1063.961
       0.951       0.940       1.013       0.948       0.933
       0.938       0.949       0.948      40.428      16.004
       0.030       2.397     -29.845     -29.845       0.063
       2.386
    7545.500
       9.875      10.013      10.013      38.160     110.263
     112.587     267.043      98.937      98.937    1067.217
       0.951       0.937       1.015       0.950       0.934
       0.939       0.950       0.950      40.672      16.514
       0.032       2.372      -6.217      -6.217       0.064
       2.378
    7546.000
       9.875      10.074      10.074      38.836     110.763
     113.086     265.416      99.383      99.383    1070.752
       0.950       0.934       1.018       0.950       0.934
       0.939       0.950       0.950      41.044      16.454
       0.032       2.347       9.452       9.452       0.062
       2.379
    7546.500
       9.875      10.141      10.141      39.961     111.184
     113.149     264.557      99.569      99.569    1074.766
       0.949       0.930       1.022       0.950       0.933
       0.939       0.950       0.949      41.357      15.867
       0.029       2.338       6.746       6.746       0.056
       2.388
    7547.000
       9.875      10.173      10.173      42.577     111.490
     113.161     264.930     100.600     100.600    1079.354
       0.946       0.926       1.029       0.953       0.936
       0.942       0.953       0.953      41.584      15.335
       0.027       2.341      -0.604      -0.604       0.050
       2.397
    7547.500
       9.875      10.161      10.161      44.740     111.901
     113.512     267.010     103.217     103.217    1084.486
       0.942       0.922       1.032       0.955       0.938
       0.944       0.955       0.955      41.891      15.213
       0.027       2.352     -10.047     -10.047       0.048
       2.399
    7548.000
       9.875      10.116      10.116      44.921     112.720
     114.098     269.773     104.486     104.486    1090.008
       0.934       0.917       1.020       0.947       0.930
       0.936       0.948       0.947      42.500      15.429
       0.027       2.364     -21.030     -21.030       0.052
       2.395
    7548.500
       9.875      10.069      10.069      45.438     113.967
     114.590     272.209     103.819     103.819    1095.660
       0.923       0.913       0.991       0.925       0.909
       0.915       0.926       0.926      43.428      15.657
       0.028       2.375     -25.021     -25.021       0.060
       2.392
    7549.000
       9.875      10.047      10.047      46.130     115.258
     114.964     273.798     103.509     103.509    1101.122
       0.910       0.908       0.960       0.899       0.885
       0.890       0.901       0.901      44.388      15.769
       0.027       2.382     -18.130     -18.130       0.066
       2.390
    7549.500
       9.875      10.052      10.052      43.916     116.083
     115.208     274.793     105.167     105.167    1106.065
       0.900       0.904       0.943       0.883       0.870
       0.874       0.885       0.885      45.003      15.891
       0.027       2.385      -3.233      -3.233       0.065
       2.388
    7550.000
       9.875      10.075      10.075      41.765     116.106
     115.581     275.088     107.788     107.788    1110.247
       0.896       0.901       0.945       0.883       0.868
       0.873       0.883       0.883      45.019      15.995
       0.028       2.380      13.055      13.055       0.058
       2.386
    7550.500
       9.875      10.114      10.114      42.817     115.358
     115.572     274.123     109.672     109.672    1113.595
       0.898       0.898       0.961       0.893       0.876
       0.881       0.891       0.891      44.463      16.096
       0.028       2.372      16.328      16.328       0.048
       2.384
    7551.000
       9.875      10.154      10.154      44.735     114.242
     115.732     273.566     109.543     109.543    1116.254
       0.903       0.896       0.979       0.905       0.887
       0.892       0.902       0.902      43.632      16.397
       0.030       2.364       1.618       1.618       0.038
       2.379
