~Version Information
 VERS.                 2.0: 
 WRAP.                 YES: 
 END.                PETRA:GeoPLUS Corporation
~Well Information Block
#MNEM.UNIT       Data Type    Information
#---------    -------------   ---------------------------------
 STRT.F           1864.0000:
 STOP.F           7551.0000:
 STEP.F              0.5000:
 NULL.              -999.25:
 COMP.                           : COMPANY
 FLD.       SP 24                : FIELD
 LOC.                            : LOCATION
 DATE.      29-AUG-2018          : DATE
 WELL.      ST TIM  U2           : Well Name
 LABL.      ST TIM U2 #3 ST1                 : Well Label
 APIN.      170750312001         : API Number
 UWI.       170750312001         : Unique Well Number
 NUMB.      3 ST                 : Well Number
 OPER.      HEC                  : Operator Name
~Parameter Block
#MNEM.UNIT           VALUE            Description
#---------    --------------------   ---------------------------------
 EKB.F                    36.0 : KB Elevation
~Curve Information Block
#MNEM.UNIT      API CODE      Curve Description
#---------    -------------   ---------------------------------
 DEPT.F                   00 000 00 00: Depth (MD)
 BIT.IN                   00 001 00 00: Bit size
 CAL.IN                   00 002 00 00: Caliper
 CALX.IN                  00 003 00 00: 
 CNCF.PU                  00 004 00 00: 3 FIELD NORMALIZED COMPENSATED NEUTRON P
 DT24QI.us/ft             00 005 00 00: Slowness over 24-inch interval
 DTC.US/F                 00 006 00 00: 17 COMPRESSIONAL WAVE SLOWNESS (INPUT; R
 DTS.US/F                 00 007 00 00: 18 SHEAR WAVE SLOWNESS (INPUT; R1_ACOUST
 GR.API                   00 008 00 00: Gamma ray; total
 GR_1.GAPI                00 009 00 00: Gamma Ray counts
 M0C6.MMHO                00 010 00 00: 5 FOCUSED INDUCTION CONDUCTIVITY - DOI 6
 M0R2.OHMM                00 011 00 00: True focused resistivity for MITRE - DOI
 M0R6.OHMM                00 012 00 00: True focused resistivity for MITRE - DOI
 M2R1.OHMM                00 013 00 00: 6 VERT RESOLUTION MATCHED (2 FT) RES - D
 M2R2.OHMM                00 014 00 00: 7 VERT RESOLUTION MATCHED (2 FT) RES - D
 M2R3.OHMM                00 015 00 00: 8 VERT RESOLUTION MATCHED (2 FT) RES - D
 M2R6.OHMM                00 016 00 00: 9 VERT RESOLUTION MATCHED (2 FT) RES - D
 M2R9.OHMM                00 017 00 00: 10 VERT RESOLUTION MATCHED (2 FT) RES -
 M2RX.OHMM                00 018 00 00: Vert resolution matched (2 ft) res - DOI
 PORAQI.pu                00 019 00 00: Acoustic porosity
 PORZC.pu                 00 020 00 00: Corrected porosity
 RWAZC.OHMM               00 021 00 00: Apparent formation water resistivity (co
 SCRA.                    00 022 00 00: 19 SHEAR TO COMPRESSIONAL SLOWNESS RATIO
 TEN.LBF                  00 023 00 00: 14 DIFFERENTIAL TENSION (INPUT; R1_MD_BA
 TEN_1.LBF                00 024 00 00: Differential Tension
 ZCOR.G/C3                00 025 00 00: 15 ZDL CORRECTION (INPUT; R1_MD_BA.LAS-Z
 ZDNC.g/cm3               00 026 00 00: Borehole size/mud weight corrected bulk mass density
~A
# ...
    4939.000
       9.875      10.441      10.441      41.468     127.568
     124.364     318.915      34.803      34.803    4537.753
       0.209       0.220       0.224       0.202       0.198
       0.198       0.200       0.198      53.548      37.208
       0.038       2.564     -23.853     -23.853       0.024
       2.036
    4939.500
       9.875      10.453      10.453      42.263     129.430
     125.235     318.616      34.172      34.172    4608.636
       0.208       0.217       0.235       0.206       0.200
       0.200       0.201       0.199      54.933      37.246
       0.038       2.544     -13.791     -13.791       0.024
       2.035
    4940.000
       9.875      10.463      10.463      42.992     128.369
     125.382     318.049      33.317      33.317    4670.757
       0.210       0.214       0.247       0.212       0.204
       0.203       0.204       0.202      54.143      37.332
       0.039       2.537     -12.087     -12.087       0.024
       2.034
    4940.500
       9.875      10.456      10.456      42.804     125.239
     123.956     318.259      33.042      33.042    4723.093
       0.212       0.212       0.253       0.214       0.204
       0.203       0.203       0.201      51.814      37.659
       0.040       2.568     -15.607     -15.607       0.023
       2.029
    4941.000
       9.875      10.446      10.446      41.750     121.877
     122.982     318.757      33.417      33.417    4767.287
       0.212       0.210       0.255       0.214       0.203
       0.201       0.200       0.199      49.313      37.939
       0.040       2.592     -18.973     -18.973       0.022
       2.024
    4941.500
       9.875      10.443      10.443      41.673     120.076
     122.968     320.206      33.698      33.698    4804.613
       0.211       0.208       0.257       0.215       0.203
       0.201       0.200       0.198      47.973      37.758
       0.039       2.604     -19.696     -19.696       0.022
       2.027
    4942.000
       9.875      10.440      10.440      43.007     120.721
     123.389     318.738      33.596      33.596    4836.046
       0.209       0.207       0.253       0.213       0.200
       0.198       0.197       0.195      48.453      37.338
       0.038       2.583     -15.292     -15.292       0.024
       2.034
    4942.500
       9.875      10.437      10.437      43.975     123.218
     123.607     315.433      33.677      33.677    4860.605
       0.205       0.206       0.240       0.204       0.193
       0.190       0.189       0.187      50.311      37.240
       0.036       2.552     -14.692     -14.692       0.025
       2.036
    4943.000
       9.875      10.439      10.439      43.983     125.862
     123.404     305.966      34.013      34.013    4876.625
       0.202       0.205       0.226       0.195       0.184
       0.182       0.181       0.179      52.279      37.490
       0.035       2.479     -19.569     -19.569       0.023
       2.031
    4943.500
       9.875      10.439      10.439      43.556     126.995
     122.468     303.180      33.893      33.893    4881.383
       0.200       0.205       0.222       0.192       0.181
       0.179       0.177       0.176      53.122      37.709
       0.035       2.476     -22.699     -22.699       0.022
       2.028
    4944.000
       9.875      10.431      10.431      43.178     126.092
     121.669     304.414      34.042      34.042    4872.629
       0.202       0.205       0.230       0.197       0.185
       0.182       0.181       0.179      52.450      37.742
       0.036       2.502     -24.457     -24.457       0.021
       2.027
    4944.500
       9.875      10.419      10.419      42.819     124.011
     121.615     308.651      35.085      35.085    4848.862
       0.205       0.206       0.244       0.206       0.193
       0.190       0.188       0.186      50.901      37.633
       0.037       2.538     -26.425     -26.425       0.021
       2.029
    4945.000
       9.875      10.411      10.411      42.117     122.274
     122.153     309.478      35.792      35.792    4810.383
       0.209       0.208       0.255       0.213       0.199
       0.196       0.194       0.192      49.608      37.327
       0.037       2.534     -24.899     -24.899       0.021
       2.034
    4945.500
       9.875      10.413      10.413      42.097     121.940
     123.648     307.271      35.735      35.735    4758.999
       0.212       0.210       0.255       0.214       0.200
       0.197       0.195       0.193      49.360      36.622
       0.036       2.485     -19.868     -19.868       0.021
       2.046
    4946.000
       9.875      10.421      10.421      43.688     123.100
     124.187     305.465      36.083      36.083    4698.197
       0.216       0.213       0.251       0.212       0.198
       0.195       0.193       0.191      50.223      35.531
       0.033       2.460     -15.458     -15.458       0.022
       2.064
    4946.500
       9.875      10.433      10.433      45.505     125.088
     124.942     302.672      36.774      36.774    4632.363
       0.220       0.216       0.253       0.215       0.201
       0.197       0.195       0.194      51.702      34.595
       0.032       2.422      -7.899      -7.899       0.023
       2.079
    4947.000
       9.875      10.443      10.443      46.322     126.858
     125.283     300.842      36.765      36.765    4566.128
       0.226       0.219       0.264       0.223       0.207
       0.204       0.202       0.200      53.020      34.613
       0.033       2.401       0.653       0.653       0.022
       2.079
    4947.500
       9.875      10.446      10.446      46.070     127.601
     125.165     298.427      35.803      35.803    4503.861
       0.233       0.222       0.277       0.232       0.215
       0.210       0.208       0.207      53.572      35.697
       0.036       2.384      -5.265      -5.265       0.016
       2.061
    4948.000
       9.875      10.443      10.443      44.630     127.073
     124.836     299.456      34.793      34.793    4449.304
       0.242       0.225       0.294       0.241       0.223
       0.218       0.216       0.215      53.179      36.848
       0.040       2.399     -22.701     -22.701       0.009
       2.042
    4948.500
       9.875      10.443      10.443      43.276     125.652
     123.724     302.767      34.768      34.768    4404.812
       0.249       0.227       0.317       0.254       0.233
       0.228       0.225       0.225      52.122      37.000
       0.043       2.447     -30.966     -30.966       0.006
       2.039
    4949.000
       9.875      10.446      10.446      43.382     124.005
     123.167     307.432      35.044      35.044    4370.716
       0.254       0.229       0.335       0.265       0.243
       0.237       0.235       0.235      50.896      36.125
       0.042       2.496     -20.921     -20.921       0.008
       2.054
    4949.500
       9.875      10.446      10.446      44.647     122.494
     122.792     309.297      34.497      34.497    4344.982
       0.254       0.230       0.334       0.266       0.244
       0.239       0.237       0.238      49.773      35.261
       0.041       2.519      -8.492      -8.492       0.013
       2.068
    4950.000
       9.875      10.442      10.442      44.482     121.121
     122.143     312.543      33.011      33.011    4323.054
       0.248       0.231       0.311       0.254       0.235
       0.232       0.230       0.232      48.751      35.148
       0.040       2.559      -8.411      -8.411       0.018
       2.070
    4950.500
       9.875      10.442      10.442      42.092     119.878
     121.119     317.463      31.671      31.671    4298.029
       0.240       0.233       0.281       0.237       0.222
       0.220       0.219       0.222      47.826      35.359
       0.038       2.621      -9.909      -9.909       0.022
       2.067
    4951.000
       9.875      10.443      10.443      38.618     118.993
     119.519     324.415      31.156      31.156    4261.505
       0.232       0.235       0.259       0.224       0.213
       0.212       0.212       0.215      47.167      35.276
       0.037       2.714      -3.172      -3.172       0.026
       2.068
