~Version Information
 VERS.                 2.0: 
 WRAP.                 YES: 
 END.                PETRA:GeoPLUS Corporation
~Well Information Block
#MNEM.UNIT       Data Type    Information
#---------    -------------   ---------------------------------
 STRT.F           1864.0000:
 STOP.F           7551.0000:
 STEP.F              0.5000:
 NULL.              -999.25:
 COMP.                           : COMPANY
 FLD.       SP 24                : FIELD
 LOC.                            : LOCATION
 DATE.      29-AUG-2018          : DATE
 WELL.      ST TIM  U2           : Well Name
 LABL.      ST TIM U2 #3 ST1                 : Well Label
 APIN.      170750312001         : API Number
 UWI.       170750312001         : Unique Well Number
 NUMB.      3 ST                 : Well Number
 OPER.      HEC                  : Operator Name
~Parameter Block
#MNEM.UNIT           VALUE            Description
#---------    --------------------   ---------------------------------
 EKB.F                    36.0 : KB Elevation
~Curve Information Block
#MNEM.UNIT      API CODE      Curve Description
#---------    -------------   ---------------------------------
 DEPT.F                   00 000 00 00: Depth (MD)
 BIT.IN                   00 001 00 00: Bit size
 CAL.IN                   00 002 00 00: Caliper
 CALX.IN                  00 003 00 00: 
 CNCF.PU                  00 004 00 00: 3 FIELD NORMALIZED COMPENSATED NEUTRON P
 DT24QI.us/ft             00 005 00 00: Slowness over 24-inch interval
 DTC.US/F                 00 006 00 00: 17 COMPRESSIONAL WAVE SLOWNESS (INPUT; R
 DTS.US/F                 00 007 00 00: 18 SHEAR WAVE SLOWNESS (INPUT; R1_ACOUST
 GR.API                   00 008 00 00: Gamma ray; total
 GR_1.GAPI                00 009 00 00: Gamma Ray counts
 M0C6.MMHO                00 010 00 00: 5 FOCUSED INDUCTION CONDUCTIVITY - DOI 6
 M0R2.OHMM                00 011 00 00: True focused resistivity for MITRE - DOI
 M0R6.OHMM                00 012 00 00: True focused resistivity for MITRE - DOI
 M2R1.OHMM                00 013 00 00: 6 VERT RESOLUTION MATCHED (2 FT) RES - D
 M2R2.OHMM                00 014 00 00: 7 VERT RESOLUTION MATCHED (2 FT) RES - D
 M2R3.OHMM                00 015 00 00: 8 VERT RESOLUTION MATCHED (2 FT) RES - D
 M2R6.OHMM                00 016 00 00: 9 VERT RESOLUTION MATCHED (2 FT) RES - D
 M2R9.OHMM                00 017 00 00: 10 VERT RESOLUTION MATCHED (2 FT) RES -
 M2RX.OHMM                00 018 00 00: Vert resolution matched (2 ft) res - DOI
 PORAQI.pu                00 019 00 00: Acoustic porosity
 PORZC.pu                 00 020 00 00: Corrected porosity
 RWAZC.OHMM               00 021 00 00: Apparent formation water resistivity (co
 SCRA.                    00 022 00 00: 19 SHEAR TO COMPRESSIONAL SLOWNESS RATIO
 TEN.LBF                  00 023 00 00: 14 DIFFERENTIAL TENSION (INPUT; R1_MD_BA
 TEN_1.LBF                00 024 00 00: Differential Tension
 ZCOR.G/C3                00 025 00 00: 15 ZDL CORRECTION (INPUT; R1_MD_BA.LAS-Z
 ZDNC.g/cm3               00 026 00 00: Borehole size/mud weight corrected bulk mass density
~A
# ...
    2339.000
       9.875      10.658      10.658      41.375     135.613
     134.302     435.365      64.965      64.965    1140.580
       0.895       0.877       1.009       0.887       0.859
       0.868       0.887       0.903      59.534      28.875
       0.101       3.242     -25.664     -25.664       0.025
       2.174
    2339.500
       9.875      10.640      10.640      41.490     134.756
     133.815     433.836      66.433      66.433    1148.426
       0.891       0.871       1.003       0.883       0.854
       0.862       0.881       0.897      58.896      28.614
       0.098       3.242     -23.753     -23.753       0.032
       2.178
    2340.000
       9.875      10.582      10.582      42.467     134.042
     133.105     433.389      67.506      67.506    1156.469
       0.888       0.865       1.010       0.886       0.856
       0.865       0.884       0.899      58.364      28.196
       0.095       3.256     -18.704     -18.704       0.040
       2.185
    2340.500
       9.875      10.519      10.519      43.225     133.866
     132.606     430.398      67.124      67.124    1164.534
       0.885       0.859       1.018       0.890       0.860
       0.868       0.887       0.902      58.234      28.200
       0.096       3.246     -21.571     -21.571       0.044
       2.185
    2341.000
       9.875      10.504      10.504      42.090     134.290
     133.046     428.040      66.689      66.689    1172.370
       0.879       0.853       1.018       0.887       0.856
       0.864       0.883       0.898      58.549      28.709
       0.099       3.217     -33.292     -33.292       0.041
       2.176
    2341.500
       9.875      10.544      10.544      40.480     134.824
     134.293     425.884      66.443      66.443    1179.607
       0.870       0.848       1.007       0.875       0.844
       0.853       0.871       0.886      58.947      29.117
       0.101       3.171     -47.367     -47.367       0.035
       2.170
    2342.000
       9.875      10.583      10.583      40.634     134.970
     135.240     425.594      65.228      65.228    1185.753
       0.860       0.843       0.991       0.861       0.831
       0.840       0.859       0.873      59.055      29.120
       0.099       3.147     -50.632     -50.632       0.030
       2.170
    2342.500
       9.875      10.591      10.591      42.426     134.657
     135.872     429.533      64.025      64.025    1190.220
       0.850       0.840       0.977       0.850       0.821
       0.831       0.849       0.864      58.822      29.128
       0.098       3.161     -45.567     -45.567       0.025
       2.169
    2343.000
       9.875      10.577      10.577      43.827     134.079
     135.984     435.200      63.309      63.309    1192.396
       0.841       0.839       0.963       0.840       0.813
       0.823       0.841       0.856      58.392      29.644
       0.101       3.200     -37.919     -37.919       0.022
       2.161
    2343.500
       9.875      10.565      10.565      43.345     133.528
     136.100     440.399      61.941      61.941    1191.752
       0.835       0.839       0.947       0.829       0.804
       0.814       0.832       0.847      57.982      30.406
       0.106       3.236     -24.518     -24.518       0.024
       2.148
    2344.000
       9.875      10.563      10.563      42.269     133.105
     136.433     445.062      60.229      60.229    1187.957
       0.832       0.842       0.936       0.822       0.797
       0.809       0.827       0.841      57.667      30.817
       0.108       3.262      -2.908      -2.908       0.030
       2.142
    2344.500
       9.875      10.579      10.579      42.304     132.767
     136.372     445.351      59.712      59.712    1180.973
       0.835       0.847       0.937       0.824       0.801
       0.813       0.831       0.846      57.416      30.689
       0.108       3.266       7.402       7.402       0.036
       2.144
    2345.000
       9.875      10.624      10.624      43.359     132.607
     135.681     436.836      60.498      60.498    1171.158
       0.844       0.854       0.950       0.837       0.813
       0.827       0.846       0.861      57.297      30.316
       0.107       3.220      -2.706      -2.706       0.037
       2.150
    2345.500
       9.875      10.672      10.672      44.422     132.749
     134.682     422.662      61.988      61.988    1159.261
       0.860       0.863       0.971       0.856       0.832
       0.847       0.866       0.882      57.403      29.863
       0.106       3.138     -20.996     -20.996       0.033
       2.157
    2346.000
       9.875      10.692      10.692      44.412     133.269
     133.394     410.775      63.934      63.934    1146.395
       0.879       0.872       0.996       0.878       0.854
       0.870       0.890       0.907      57.789      29.159
       0.103       3.079     -32.835     -32.835       0.026
       2.169
    2346.500
       9.875      10.676      10.676      43.073     134.130
     132.230     402.189      65.823      65.823    1133.888
       0.900       0.882       1.025       0.904       0.879
       0.897       0.917       0.934      58.430      28.221
       0.099       3.042     -36.467     -36.467       0.019
       2.184
    2347.000
       9.875      10.613      10.613      41.921     135.091
     131.270     399.033      67.001      67.001    1123.114
       0.919       0.890       1.052       0.928       0.903
       0.921       0.941       0.960      59.145      27.623
       0.097       3.040     -37.119     -37.119       0.014
       2.194
    2347.500
       9.875      10.505      10.505      41.686     135.706
     130.778     398.814      67.088      67.088    1115.290
       0.935       0.897       1.071       0.944       0.918
       0.936       0.957       0.975      59.603      27.848
       0.101       3.050     -39.060     -39.060       0.009
       2.191
    2348.000
       9.875      10.410      10.410      41.068     135.666
     130.673     398.139      66.621      66.621    1111.296
       0.944       0.900       1.083       0.953       0.926
       0.943       0.964       0.983      59.573      28.534
       0.107       3.047     -37.043     -37.043       0.007
       2.179
    2348.500
       9.875      10.385      10.385      39.502     135.002
     131.478     400.305      65.997      65.997    1111.558
       0.947       0.900       1.094       0.960       0.932
       0.949       0.970       0.989      59.079      28.945
       0.111       3.045     -23.204     -23.204       0.010
       2.172
    2349.000
       9.875      10.438      10.438      38.354     134.122
     132.503     403.864      66.061      66.061    1116.021
       0.941       0.896       1.098       0.960       0.932
       0.947       0.969       0.988      58.424      29.008
       0.111       3.048      -5.728      -5.728       0.013
       2.171
    2349.500
       9.875      10.545      10.545      39.737     133.814
     134.911     414.211      67.440      67.440    1124.197
       0.928       0.890       1.079       0.943       0.915
       0.930       0.951       0.970      58.195      29.103
       0.110       3.070      19.027      19.027       0.014
       2.170
    2350.000
       9.875      10.665      10.665      42.277     134.580
     136.352     415.796      68.336      68.336    1135.307
       0.909       0.881       1.042       0.913       0.887
       0.899       0.920       0.938      58.765      29.398
       0.109       3.049      63.764      63.764       0.012
       2.165
    2350.500
       9.875      10.735      10.735      43.517     136.157
     136.971     421.561      66.334      66.334    1148.448
       0.888       0.871       1.005       0.884       0.859
       0.870       0.891       0.908      59.938      29.771
       0.108       3.078     101.730     101.730       0.011
       2.159
    2351.000
       9.875      10.726      10.726      43.254     137.704
     136.468     424.052      63.304      63.304    1162.769
       0.871       0.860       0.979       0.863       0.839
       0.850       0.871       0.887      61.090      30.102
       0.108       3.107      87.266      87.266       0.015
       2.153
