~Version Information
 VERS.                 2.0: 
 WRAP.                 YES: 
 END.                PETRA:GeoPLUS Corporation
~Well Information Block
#MNEM.UNIT       Data Type    Information
#---------    -------------   ---------------------------------
 STRT.F           1864.0000:
 STOP.F           7551.0000:
 STEP.F              0.5000:
 NULL.              -999.25:
 COMP.                           : COMPANY
 FLD.       SP 24                : FIELD
 LOC.                            : LOCATION
 DATE.      29-AUG-2018          : DATE
 WELL.      ST TIM  U2           : Well Name
 LABL.      ST TIM U2 #3 ST1                 : Well Label
 APIN.      170750312001         : API Number
 UWI.       170750312001         : Unique Well Number
 NUMB.      3 ST                 : Well Number
 OPER.      HEC                  : Operator Name
~Parameter Block
#MNEM.UNIT           VALUE            Description
#---------    --------------------   ---------------------------------
 EKB.F                    36.0 : KB Elevation
~Curve Information Block
#MNEM.UNIT      API CODE      Curve Description
#---------    -------------   ---------------------------------
 DEPT.F                   00 000 00 00: Depth (MD)
 BIT.IN                   00 001 00 00: Bit size
 CAL.IN                   00 002 00 00: Caliper
 CALX.IN                  00 003 00 00: 
 CNCF.PU                  00 004 00 00: 3 FIELD NORMALIZED COMPENSATED NEUTRON P
 DT24QI.us/ft             00 005 00 00: Slowness over 24-inch interval
 DTC.US/F                 00 006 00 00: 17 COMPRESSIONAL WAVE SLOWNESS (INPUT; R
 DTS.US/F                 00 007 00 00: 18 SHEAR WAVE SLOWNESS (INPUT; R1_ACOUST
 GR.API                   00 008 00 00: Gamma ray; total
 GR_1.GAPI                00 009 00 00: Gamma Ray counts
 M0C6.MMHO                00 010 00 00: 5 FOCUSED INDUCTION CONDUCTIVITY - DOI 6
 M0R2.OHMM                00 011 00 00: True focused resistivity for MITRE - DOI
 M0R6.OHMM                00 012 00 00: True focused resistivity for MITRE - DOI
 M2R1.OHMM                00 013 00 00: 6 VERT RESOLUTION MATCHED (2 FT) RES - D
 M2R2.OHMM                00 014 00 00: 7 VERT RESOLUTION MATCHED (2 FT) RES - D
 M2R3.OHMM                00 015 00 00: 8 VERT RESOLUTION MATCHED (2 FT) RES - D
 M2R6.OHMM                00 016 00 00: 9 VERT RESOLUTION MATCHED (2 FT) RES - D
 M2R9.OHMM                00 017 00 00: 10 VERT RESOLUTION MATCHED (2 FT) RES -
 M2RX.OHMM                00 018 00 00: Vert resolution matched (2 ft) res - DOI
 PORAQI.pu                00 019 00 00: Acoustic porosity
 PORZC.pu                 00 020 00 00: Corrected porosity
 RWAZC.OHMM               00 021 00 00: Apparent formation water resistivity (co
 SCRA.                    00 022 00 00: 19 SHEAR TO COMPRESSIONAL SLOWNESS RATIO
 TEN.LBF                  00 023 00 00: 14 DIFFERENTIAL TENSION (INPUT; R1_MD_BA
 TEN_1.LBF                00 024 00 00: Differential Tension
 ZCOR.G/C3                00 025 00 00: 15 ZDL CORRECTION (INPUT; R1_MD_BA.LAS-Z
 ZDNC.g/cm3               00 026 00 00: Borehole size/mud weight corrected bulk mass density
~A
# ...
    4564.000
       9.875      10.968      10.968      42.587     116.864
     126.505     363.865      70.276      70.276    3150.140
       0.337       0.317       0.380       0.338       0.327
       0.329       0.331       0.331      45.584      37.164
       0.064       2.876       4.351       4.351       0.026
       2.037
    4564.500
       9.875      10.870      10.870      43.939     115.605
     126.090     363.109      69.937      69.937    3105.803
       0.341       0.322       0.387       0.344       0.333
       0.334       0.336       0.336      44.647      36.860
       0.063       2.880       0.019       0.019       0.031
       2.042
    4565.000
       9.875      10.708      10.708      45.688     117.373
     125.797     363.387      70.763      70.763    3077.141
       0.343       0.325       0.390       0.347       0.336
       0.336       0.338       0.339      45.962      36.721
       0.063       2.889     -10.938     -10.938       0.032
       2.044
    4565.500
       9.875      10.625      10.625      44.156     119.999
     125.855     361.333      70.461      70.461    3062.396
       0.343       0.327       0.389       0.345       0.334
       0.333       0.335       0.336      47.916      36.718
       0.063       2.871     -22.358     -22.358       0.030
       2.044
    4566.000
       9.875      10.608      10.608      41.230     122.019
     125.940     359.644      69.378      69.378    3059.440
       0.342       0.327       0.385       0.341       0.329
       0.328       0.330       0.331      49.419      36.653
       0.062       2.856     -25.612     -25.612       0.027
       2.045
    4566.500
       9.875      10.588      10.588      40.687     123.362
     125.889     359.718      68.318      68.318    3066.984
       0.341       0.326       0.384       0.339       0.327
       0.325       0.327       0.328      50.418      36.592
       0.061       2.857     -16.821     -16.821       0.024
       2.046
    4567.000
       9.875      10.552      10.552      42.120     124.662
     125.336     361.753      68.618      68.618    3084.779
       0.342       0.324       0.388       0.341       0.328
       0.326       0.327       0.329      51.386      36.615
       0.061       2.886      -7.372      -7.372       0.022
       2.046
    4567.500
       9.875      10.509      10.509      43.168     126.235
     125.002     364.265      70.070      70.070    3113.930
       0.343       0.321       0.394       0.345       0.331
       0.328       0.329       0.331      52.556      36.591
       0.061       2.914      -8.499      -8.499       0.023
       2.046
    4568.000
       9.875      10.476      10.476      43.424     127.770
     124.974     365.823      71.295      71.295    3155.880
       0.343       0.317       0.397       0.347       0.332
       0.328       0.329       0.330      53.698      36.582
       0.061       2.927     -10.625     -10.625       0.025
       2.046
    4568.500
       9.875      10.468      10.468      44.991     128.855
     125.251     372.007      72.910      72.910    3211.835
       0.340       0.311       0.395       0.344       0.329
       0.324       0.325       0.326      54.505      36.708
       0.061       2.970      -5.096      -5.096       0.027
       2.044
    4569.000
       9.875      10.494      10.494      47.180     129.481
     125.835     377.471      74.147      74.147    3281.237
       0.333       0.305       0.389       0.338       0.322
       0.317       0.318       0.319      54.971      36.885
       0.060       3.000      -4.442      -4.442       0.026
       2.041
    4569.500
       9.875      10.553      10.553      48.366     130.070
     126.683     380.389      72.776      72.776    3361.385
       0.321       0.297       0.375       0.326       0.310
       0.305       0.306       0.306      55.409      37.089
       0.059       3.003     -22.272     -22.272       0.024
       2.038
    4570.000
       9.875      10.622      10.622      48.908     130.743
     127.375     391.783      69.768      69.768    3446.719
       0.306       0.290       0.355       0.308       0.293
       0.288       0.289       0.289      55.910      37.620
       0.057       3.076     -42.836     -42.836       0.019
       2.029
    4570.500
       9.875      10.654      10.654      49.031     131.022
     128.176     396.850      68.184      68.184    3529.845
       0.291       0.283       0.331       0.287       0.273
       0.269       0.270       0.270      56.117      38.468
       0.056       3.096     -41.432     -41.432       0.014
       2.015
    4571.000
       9.875      10.628      10.628      47.215     130.077
     129.027     395.953      69.005      69.005    3601.950
       0.278       0.278       0.311       0.270       0.257
       0.253       0.254       0.254      55.415      39.157
       0.055       3.069     -25.956     -25.956       0.013
       2.004
    4571.500
       9.875      10.575      10.575      44.699     127.339
     129.748     399.118      71.106      71.106    3654.800
       0.270       0.274       0.301       0.260       0.248
       0.245       0.246       0.246      53.377      39.349
       0.053       3.076     -16.111     -16.111       0.016
       2.001
    4572.000
       9.875      10.531      10.531      43.333     123.460
     130.202     402.610      72.348      72.348    3681.369
       0.266       0.272       0.301       0.260       0.247
       0.245       0.246       0.246      50.491      39.085
       0.053       3.092     -10.428     -10.428       0.023
       2.005
    4572.500
       9.875      10.507      10.507      42.792     120.199
     129.813     408.035      71.647      71.647    3677.167
       0.267       0.272       0.305       0.263       0.251
       0.249       0.250       0.251      48.065      38.639
       0.052       3.143      -5.656      -5.656       0.028
       2.012
    4573.000
       9.875      10.501      10.501      42.085     119.261
     129.307     402.963      70.624      70.624    3640.105
       0.270       0.275       0.309       0.268       0.255
       0.255       0.256       0.256      47.367      38.321
       0.053       3.116     -11.182     -11.182       0.030
       2.018
    4573.500
       9.875      10.511      10.511      41.654     121.062
     128.847     394.286      70.465      70.465    3569.696
       0.274       0.280       0.312       0.272       0.260
       0.261       0.262       0.263      48.707      38.170
       0.053       3.060     -20.516     -20.516       0.028
       2.020
    4574.000
       9.875      10.521      10.521      42.341     124.353
     128.798     383.814      70.549      70.549    3469.144
       0.280       0.288       0.314       0.277       0.265
       0.267       0.267       0.269      51.155      38.114
       0.055       2.980     -18.351     -18.351       0.026
       2.021
    4574.500
       9.875      10.495      10.495      43.509     127.119
     128.693     383.133      70.805      70.805    3343.896
       0.288       0.299       0.315       0.281       0.270
       0.273       0.273       0.276      53.214      38.346
       0.057       2.977     -10.742     -10.742       0.025
       2.017
    4575.000
       9.875      10.426      10.426      45.313     128.028
     128.627     378.918      71.453      71.453    3200.505
       0.302       0.312       0.323       0.290       0.281
       0.284       0.284       0.287      53.890      38.801
       0.060       2.946      -7.715      -7.715       0.023
       2.010
    4575.500
       9.875      10.362      10.362      48.217     127.337
     128.262     374.080      72.632      72.632    3047.303
       0.322       0.328       0.346       0.312       0.303
       0.307       0.307       0.310      53.376      38.796
       0.065       2.917      -3.460      -3.460       0.023
       2.010
    4576.000
       9.875      10.345      10.345      51.022     126.327
     128.292     363.159      74.340      74.340    2893.829
       0.351       0.346       0.388       0.351       0.340
       0.345       0.344       0.349      52.625      37.831
       0.070       2.831       4.926       4.926       0.026
       2.026
