~Version Information
 VERS.                 2.0: 
 WRAP.                 YES: 
 END.                PETRA:GeoPLUS Corporation
~Well Information Block
#MNEM.UNIT       Data Type    Information
#---------    -------------   ---------------------------------
 STRT.F           1864.0000:
 STOP.F           7551.0000:
 STEP.F              0.5000:
 NULL.              -999.25:
 COMP.                           : COMPANY
 FLD.       SP 24                : FIELD
 LOC.                            : LOCATION
 DATE.      29-AUG-2018          : DATE
 WELL.      ST TIM  U2           : Well Name
 LABL.      ST TIM U2 #3 ST1                 : Well Label
 APIN.      170750312001         : API Number
 UWI.       170750312001         : Unique Well Number
 NUMB.      3 ST                 : Well Number
 OPER.      HEC                  : Operator Name
~Parameter Block
#MNEM.UNIT           VALUE            Description
#---------    --------------------   ---------------------------------
 EKB.F                    36.0 : KB Elevation
~Curve Information Block
#MNEM.UNIT      API CODE      Curve Description
#---------    -------------   ---------------------------------
 DEPT.F                   00 000 00 00: Depth (MD)
 BIT.IN                   00 001 00 00: Bit size
 CAL.IN                   00 002 00 00: Caliper
 CALX.IN                  00 003 00 00: 
 CNCF.PU                  00 004 00 00: 3 FIELD NORMALIZED COMPENSATED NEUTRON P
 DT24QI.us/ft             00 005 00 00: Slowness over 24-inch interval
 DTC.US/F                 00 006 00 00: 17 COMPRESSIONAL WAVE SLOWNESS (INPUT; R
 DTS.US/F                 00 007 00 00: 18 SHEAR WAVE SLOWNESS (INPUT; R1_ACOUST
 GR.API                   00 008 00 00: Gamma ray; total
 GR_1.GAPI                00 009 00 00: Gamma Ray counts
 M0C6.MMHO                00 010 00 00: 5 FOCUSED INDUCTION CONDUCTIVITY - DOI 6
 M0R2.OHMM                00 011 00 00: True focused resistivity for MITRE - DOI
 M0R6.OHMM                00 012 00 00: True focused resistivity for MITRE - DOI
 M2R1.OHMM                00 013 00 00: 6 VERT RESOLUTION MATCHED (2 FT) RES - D
 M2R2.OHMM                00 014 00 00: 7 VERT RESOLUTION MATCHED (2 FT) RES - D
 M2R3.OHMM                00 015 00 00: 8 VERT RESOLUTION MATCHED (2 FT) RES - D
 M2R6.OHMM                00 016 00 00: 9 VERT RESOLUTION MATCHED (2 FT) RES - D
 M2R9.OHMM                00 017 00 00: 10 VERT RESOLUTION MATCHED (2 FT) RES -
 M2RX.OHMM                00 018 00 00: Vert resolution matched (2 ft) res - DOI
 PORAQI.pu                00 019 00 00: Acoustic porosity
 PORZC.pu                 00 020 00 00: Corrected porosity
 RWAZC.OHMM               00 021 00 00: Apparent formation water resistivity (co
 SCRA.                    00 022 00 00: 19 SHEAR TO COMPRESSIONAL SLOWNESS RATIO
 TEN.LBF                  00 023 00 00: 14 DIFFERENTIAL TENSION (INPUT; R1_MD_BA
 TEN_1.LBF                00 024 00 00: Differential Tension
 ZCOR.G/C3                00 025 00 00: 15 ZDL CORRECTION (INPUT; R1_MD_BA.LAS-Z
 ZDNC.g/cm3               00 026 00 00: Borehole size/mud weight corrected bulk mass density
~A
# ...
    4189.000
       9.875      10.562      10.562      50.058     138.142
     137.525     395.631      91.565      91.565    2124.404
       0.449       0.471       0.454       0.450       0.460
       0.474       0.484       0.499      61.415      25.008
       0.041       2.877       0.580       0.580       0.031
       2.237
    4189.500
       9.875      10.514      10.514      54.338     137.707
     137.482     393.379      90.324      90.324    2112.905
       0.453       0.473       0.459       0.455       0.465
       0.480       0.490       0.505      61.092      25.212
       0.042       2.861       1.683       1.683       0.030
       2.234
    4190.000
       9.875      10.475      10.475      53.072     137.443
     137.327     389.715      92.036      92.036    2099.673
       0.457       0.476       0.463       0.459       0.469
       0.484       0.495       0.510      60.895      25.293
       0.043       2.838      -5.811      -5.811       0.032
       2.233
    4190.500
       9.875      10.441      10.441      50.240     137.168
     136.237     385.549      94.319      94.319    2085.487
       0.461       0.480       0.467       0.462       0.474
       0.489       0.500       0.515      60.691      24.905
       0.042       2.830     -17.818     -17.818       0.034
       2.239
    4191.000
       9.875      10.400      10.400      49.147     136.661
     135.367     380.844      95.537      95.537    2071.183
       0.466       0.483       0.472       0.468       0.480
       0.495       0.507       0.521      60.313      24.368
       0.040       2.813     -24.459     -24.459       0.033
       2.248
    4191.500
       9.875      10.352      10.352      46.870     135.876
     134.610     378.926      96.082      96.082    2057.582
       0.472       0.486       0.479       0.475       0.488
       0.504       0.516       0.529      59.729      24.130
       0.040       2.815     -29.958     -29.958       0.029
       2.252
    4192.000
       9.875      10.305      10.305      44.651     135.031
     134.000     377.517      96.604      96.604    2045.414
       0.477       0.489       0.485       0.483       0.496
       0.512       0.524       0.538      59.100      24.148
       0.041       2.817     -36.344     -36.344       0.025
       2.252
    4192.500
       9.875      10.266      10.266      45.955     134.444
     133.232     376.345      97.115      97.115    2035.227
       0.482       0.491       0.488       0.487       0.501
       0.517       0.530       0.543      58.664      24.200
       0.041       2.825     -37.708     -37.708       0.024
       2.251
    4193.000
       9.875      10.247      10.247      48.194     134.308
     133.081     376.390      97.008      97.008    2027.312
       0.485       0.493       0.490       0.490       0.505
       0.521       0.534       0.547      58.563      24.211
       0.042       2.828     -29.448     -29.448       0.028
       2.251
    4193.500
       9.875      10.257      10.257      48.195     134.559
     133.256     379.086      97.446      97.446    2021.606
       0.486       0.495       0.492       0.493       0.508
       0.525       0.538       0.550      58.749      24.135
       0.042       2.845     -18.384     -18.384       0.032
       2.252
    4194.000
       9.875      10.302      10.302      47.517     134.867
     134.227     382.195      98.800      98.800    2017.669
       0.486       0.496       0.492       0.494       0.510
       0.526       0.540       0.552      58.978      24.013
       0.041       2.847     -15.784     -15.784       0.034
       2.254
    4194.500
       9.875      10.389      10.389      48.241     134.915
     134.758     383.768      99.643      99.643    2014.768
       0.484       0.496       0.489       0.491       0.508
       0.524       0.537       0.549      59.014      24.005
       0.041       2.848     -16.421     -16.421       0.034
       2.254
    4195.000
       9.875      10.491      10.491      49.606     134.611
     135.055     381.304      99.035      99.035    2012.050
       0.482       0.497       0.483       0.486       0.503
       0.518       0.532       0.543      58.788      24.071
       0.041       2.823      -7.611      -7.611       0.033
       2.253
    4195.500
       9.875      10.567      10.567      50.734     134.162
     135.216     373.047      97.569      97.569    2008.853
       0.480       0.498       0.478       0.482       0.499
       0.514       0.527       0.539      58.454      24.115
       0.041       2.759       1.662       1.662       0.032
       2.252
    4196.000
       9.875      10.600      10.600      50.867     133.929
     135.193     365.477      96.234      96.234    2005.097
       0.482       0.499       0.479       0.483       0.500
       0.515       0.528       0.540      58.281      24.208
       0.041       2.703       2.579       2.579       0.031
       2.251
    4196.500
       9.875      10.605      10.605      50.966     133.857
     134.549     356.494      94.703      94.703    2001.560
       0.485       0.500       0.483       0.488       0.505
       0.519       0.532       0.544      58.227      24.348
       0.042       2.650       6.902       6.902       0.031
       2.248
    4197.000
       9.875      10.602      10.602      50.660     133.271
     132.994     347.822      93.043      93.043    2000.122
       0.492       0.500       0.489       0.493       0.510
       0.523       0.535       0.547      57.791      24.316
       0.042       2.615      14.979      14.979       0.031
       2.249
    4197.500
       9.875      10.597      10.597      48.539     131.140
     129.366     337.082      91.280      91.280    2003.661
       0.502       0.499       0.501       0.502       0.518
       0.530       0.541       0.553      56.206      24.039
       0.042       2.606      11.608      11.608       0.032
       2.253
    4198.000
       9.875      10.588      10.588      45.558     126.900
     126.158     327.769      87.775      87.775    2015.720
       0.515       0.496       0.524       0.522       0.537
       0.547       0.559       0.571      53.051      23.771
       0.042       2.598      -2.275      -2.275       0.031
       2.258
    4198.500
       9.875      10.585      10.585      43.773     121.429
     123.932     318.242      81.406      81.406    2039.831
       0.526       0.490       0.559       0.551       0.565
       0.573       0.584       0.597      48.980      23.716
       0.044       2.568     -14.101     -14.101       0.028
       2.259
    4199.000
       9.875      10.618      10.618      43.461     116.930
     122.545     312.202      73.947      73.947    2078.708
       0.529       0.481       0.583       0.567       0.578
       0.584       0.594       0.608      45.633      23.962
       0.045       2.548     -17.822     -17.822       0.026
       2.255
    4199.500
       9.875      10.754      10.754      43.943     115.574
     122.098     309.656      67.008      67.008    2133.564
       0.519       0.469       0.575       0.551       0.558
       0.560       0.570       0.583      44.623      24.960
       0.048       2.536     -10.388     -10.388       0.031
       2.238
    4200.000
       9.875      11.094      11.094      44.948     117.906
     122.523     312.330      60.158      60.158    2203.747
       0.497       0.454       0.545       0.513       0.516
       0.514       0.522       0.533      46.359      27.267
       0.053       2.549      -3.238      -3.238       0.043
       2.200
    4200.500
       9.875      11.670      11.670      45.889     122.453
     124.582     314.591      53.210      53.210    2286.949
       0.471       0.437       0.513       0.475       0.473
       0.468       0.474       0.484      49.742      30.403
       0.060       2.525      -8.791      -8.791       0.060
       2.148
    4201.000
       9.875      12.332      12.332      45.641     126.647
     126.400     323.800      47.695      47.695    2379.975
       0.447       0.420       0.492       0.447       0.441
       0.433       0.437       0.445      52.862      33.223
       0.067       2.562     -11.400     -11.400       0.079
       2.102
