~Version Information
 VERS.                 2.0: 
 WRAP.                 YES: 
 END.                PETRA:GeoPLUS Corporation
~Well Information Block
#MNEM.UNIT       Data Type    Information
#---------    -------------   ---------------------------------
 STRT.F           1864.0000:
 STOP.F           7551.0000:
 STEP.F              0.5000:
 NULL.              -999.25:
 COMP.                           : COMPANY
 FLD.       SP 24                : FIELD
 LOC.                            : LOCATION
 DATE.      29-AUG-2018          : DATE
 WELL.      ST TIM  U2           : Well Name
 LABL.      ST TIM U2 #3 ST1                 : Well Label
 APIN.      170750312001         : API Number
 UWI.       170750312001         : Unique Well Number
 NUMB.      3 ST                 : Well Number
 OPER.      HEC                  : Operator Name
~Parameter Block
#MNEM.UNIT           VALUE            Description
#---------    --------------------   ---------------------------------
 EKB.F                    36.0 : KB Elevation
~Curve Information Block
#MNEM.UNIT      API CODE      Curve Description
#---------    -------------   ---------------------------------
 DEPT.F                   00 000 00 00: Depth (MD)
 BIT.IN                   00 001 00 00: Bit size
 CAL.IN                   00 002 00 00: Caliper
 CALX.IN                  00 003 00 00: 
 CNCF.PU                  00 004 00 00: 3 FIELD NORMALIZED COMPENSATED NEUTRON P
 DT24QI.us/ft             00 005 00 00: Slowness over 24-inch interval
 DTC.US/F                 00 006 00 00: 17 COMPRESSIONAL WAVE SLOWNESS (INPUT; R
 DTS.US/F                 00 007 00 00: 18 SHEAR WAVE SLOWNESS (INPUT; R1_ACOUST
 GR.API                   00 008 00 00: Gamma ray; total
 GR_1.GAPI                00 009 00 00: Gamma Ray counts
 M0C6.MMHO                00 010 00 00: 5 FOCUSED INDUCTION CONDUCTIVITY - DOI 6
 M0R2.OHMM                00 011 00 00: True focused resistivity for MITRE - DOI
 M0R6.OHMM                00 012 00 00: True focused resistivity for MITRE - DOI
 M2R1.OHMM                00 013 00 00: 6 VERT RESOLUTION MATCHED (2 FT) RES - D
 M2R2.OHMM                00 014 00 00: 7 VERT RESOLUTION MATCHED (2 FT) RES - D
 M2R3.OHMM                00 015 00 00: 8 VERT RESOLUTION MATCHED (2 FT) RES - D
 M2R6.OHMM                00 016 00 00: 9 VERT RESOLUTION MATCHED (2 FT) RES - D
 M2R9.OHMM                00 017 00 00: 10 VERT RESOLUTION MATCHED (2 FT) RES -
 M2RX.OHMM                00 018 00 00: Vert resolution matched (2 ft) res - DOI
 PORAQI.pu                00 019 00 00: Acoustic porosity
 PORZC.pu                 00 020 00 00: Corrected porosity
 RWAZC.OHMM               00 021 00 00: Apparent formation water resistivity (co
 SCRA.                    00 022 00 00: 19 SHEAR TO COMPRESSIONAL SLOWNESS RATIO
 TEN.LBF                  00 023 00 00: 14 DIFFERENTIAL TENSION (INPUT; R1_MD_BA
 TEN_1.LBF                00 024 00 00: Differential Tension
 ZCOR.G/C3                00 025 00 00: 15 ZDL CORRECTION (INPUT; R1_MD_BA.LAS-Z
 ZDNC.g/cm3               00 026 00 00: Borehole size/mud weight corrected bulk mass density
~A
# ...
    6801.500
       9.875      10.318      10.318      42.081     118.622
     117.956     285.737      98.601      98.601    1264.376
       0.822       0.791       0.901       0.842       0.829
       0.841       0.846       0.873      46.891      17.404
       0.033       2.422      -0.136      -0.136       0.049
       2.363
    6802.000
       9.875      10.370      10.370      43.470     120.148
     117.600     285.504      98.888      98.888    1249.212
       0.829       0.800       0.898       0.843       0.833
       0.847       0.854       0.882      48.027      18.219
       0.037       2.428     -10.246     -10.246       0.042
       2.349
    6802.500
       9.875      10.338      10.338      43.135     120.497
     117.597     285.998      98.951      98.951    1237.864
       0.830       0.808       0.887       0.836       0.829
       0.844       0.854       0.881      48.286      18.610
       0.038       2.432     -23.436     -23.436       0.046
       2.343
    6803.000
       9.875      10.229      10.229      41.884     119.926
     117.283     286.513      98.344      98.344    1230.063
       0.828       0.813       0.877       0.830       0.824
       0.840       0.852       0.879      47.862      18.366
       0.037       2.443     -32.067     -32.067       0.056
       2.347
    6803.500
       9.875      10.114      10.114      41.278     119.197
     117.671     287.433      97.213      97.213    1225.185
       0.825       0.816       0.871       0.826       0.822
       0.839       0.851       0.878      47.319      18.261
       0.037       2.443     -36.916     -36.916       0.062
       2.349
    6804.000
       9.875      10.066      10.066      42.850     118.737
     118.197     288.236      96.724      96.724    1222.335
       0.821       0.818       0.869       0.824       0.821
       0.837       0.851       0.876      46.977      18.538
       0.038       2.439     -38.351     -38.351       0.062
       2.344
    6804.500
       9.875      10.089      10.089      44.926     118.531
     118.822     288.954      97.714      97.714    1220.477
       0.817       0.819       0.867       0.821       0.818
       0.835       0.849       0.872      46.824      18.469
       0.037       2.432     -30.915     -30.915       0.058
       2.345
    6805.000
       9.875      10.138      10.138      45.010     118.484
     119.113     289.482      99.537      99.537    1218.641
       0.814       0.821       0.863       0.817       0.814
       0.831       0.845       0.866      46.789      17.833
       0.034       2.430     -12.476     -12.476       0.053
       2.356
    6805.500
       9.875      10.180      10.180      44.567     118.589
     119.606     290.696     101.288     101.288    1216.052
       0.812       0.822       0.860       0.813       0.811
       0.828       0.841       0.860      46.867      17.327
       0.032       2.430       4.412       4.412       0.046
       2.364
    6806.000
       9.875      10.199      10.199      45.092     118.940
     119.482     290.790     103.207     103.207    1212.264
       0.813       0.825       0.859       0.813       0.811
       0.828       0.841       0.858      47.128      17.280
       0.032       2.434       3.975       3.975       0.043
       2.365
    6806.500
       9.875      10.170      10.170      45.223     119.482
     118.581     289.255     105.145     105.145    1207.170
       0.818       0.828       0.864       0.818       0.816
       0.834       0.847       0.862      47.531      17.294
       0.032       2.439     -10.561     -10.561       0.046
       2.365
    6807.000
       9.875      10.090      10.090      43.918     119.829
     117.637     287.242     105.876     105.876    1201.001
       0.825       0.833       0.874       0.829       0.827
       0.845       0.858       0.871      47.789      17.318
       0.032       2.442     -23.139     -23.139       0.055
       2.364
    6807.500
       9.875      10.008      10.008      42.224     119.545
     116.885     284.321     104.099     104.099    1194.207
       0.835       0.837       0.886       0.841       0.839
       0.858       0.870       0.882      47.578      17.719
       0.034       2.432     -30.531     -30.531       0.061
       2.358
    6808.000
       9.875       9.980       9.980      41.312     118.548
     116.427     281.817     100.951     100.951    1187.355
       0.846       0.842       0.898       0.852       0.851
       0.869       0.881       0.891      46.836      18.342
       0.038       2.421     -36.206     -36.206       0.061
       2.347
    6808.500
       9.875      10.012      10.012      41.095     117.161
     116.007     279.592      98.320      98.320    1180.986
       0.856       0.847       0.912       0.865       0.863
       0.882       0.893       0.902      45.805      18.521
       0.039       2.410     -36.829     -36.829       0.057
       2.344
    6809.000
       9.875      10.094      10.094      40.290     115.826
     115.654     277.786      97.662      97.662    1175.524
       0.864       0.851       0.929       0.878       0.877
       0.896       0.907       0.914      44.811      18.052
       0.037       2.402     -26.948     -26.948       0.053
       2.352
    6809.500
       9.875      10.195      10.195      38.512     114.776
     115.544     277.260      98.359      98.359    1171.201
       0.869       0.854       0.941       0.888       0.887
       0.905       0.917       0.922      44.030      17.523
       0.035       2.400     -14.828     -14.828       0.046
       2.361
    6810.000
       9.875      10.254      10.254      38.136     113.919
     115.220     276.916      99.262      99.262    1168.072
       0.869       0.856       0.940       0.887       0.887
       0.905       0.916       0.920      43.392      17.481
       0.035       2.403     -12.874     -12.874       0.040
       2.362
    6810.500
       9.875      10.213      10.213      39.720     113.144
     115.414     276.862      99.640      99.640    1166.051
       0.867       0.858       0.926       0.878       0.878
       0.895       0.906       0.908      42.816      17.689
       0.035       2.399     -15.906     -15.906       0.040
       2.358
    6811.000
       9.875      10.105      10.105      41.569     112.765
     115.574     276.810     100.092     100.092    1164.995
       0.864       0.858       0.912       0.867       0.868
       0.885       0.896       0.897      42.533      17.718
       0.035       2.395     -13.365     -13.365       0.047
       2.358
    6811.500
       9.875      10.018      10.018      42.699     113.341
     115.894     276.210      99.850      99.850    1164.800
       0.861       0.859       0.904       0.862       0.864
       0.881       0.892       0.891      42.962      17.736
       0.035       2.383     -12.360     -12.360       0.057
       2.357
    6812.000
       9.875       9.996       9.996      43.282     115.052
     115.794     275.698      99.490      99.490    1165.464
       0.862       0.858       0.902       0.863       0.865
       0.882       0.893       0.891      44.235      18.016
       0.036       2.381     -19.562     -19.562       0.062
       2.353
    6812.500
       9.875      10.006      10.006      43.633     117.287
     115.660     275.522      99.883      99.883    1167.143
       0.864       0.857       0.907       0.867       0.870
       0.886       0.899       0.895      45.898      18.196
       0.037       2.382     -23.534     -23.534       0.063
       2.350
    6813.000
       9.875      10.032      10.032      43.921     118.950
     115.555     275.532     100.990     100.990    1170.138
       0.868       0.855       0.918       0.876       0.878
       0.894       0.907       0.902      47.135      17.876
       0.036       2.384     -14.556     -14.556       0.059
       2.355
    6813.500
       9.875      10.074      10.074      44.340     119.332
     115.569     276.375     102.128     102.128    1174.875
       0.870       0.851       0.932       0.887       0.889
       0.905       0.919       0.912      47.420      17.276
       0.034       2.391       3.075       3.075       0.054
       2.365
