~Version Information
 VERS.                 2.0: 
 WRAP.                 YES: 
 END.                PETRA:GeoPLUS Corporation
~Well Information Block
#MNEM.UNIT       Data Type    Information
#---------    -------------   ---------------------------------
 STRT.F           1864.0000:
 STOP.F           7551.0000:
 STEP.F              0.5000:
 NULL.              -999.25:
 COMP.                           : COMPANY
 FLD.       SP 24                : FIELD
 LOC.                            : LOCATION
 DATE.      29-AUG-2018          : DATE
 WELL.      ST TIM  U2           : Well Name
 LABL.      ST TIM U2 #3 ST1                 : Well Label
 APIN.      170750312001         : API Number
 UWI.       170750312001         : Unique Well Number
 NUMB.      3 ST                 : Well Number
 OPER.      HEC                  : Operator Name
~Parameter Block
#MNEM.UNIT           VALUE            Description
#---------    --------------------   ---------------------------------
 EKB.F                    36.0 : KB Elevation
~Curve Information Block
#MNEM.UNIT      API CODE      Curve Description
#---------    -------------   ---------------------------------
 DEPT.F                   00 000 00 00: Depth (MD)
 BIT.IN                   00 001 00 00: Bit size
 CAL.IN                   00 002 00 00: Caliper
 CALX.IN                  00 003 00 00: 
 CNCF.PU                  00 004 00 00: 3 FIELD NORMALIZED COMPENSATED NEUTRON P
 DT24QI.us/ft             00 005 00 00: Slowness over 24-inch interval
 DTC.US/F                 00 006 00 00: 17 COMPRESSIONAL WAVE SLOWNESS (INPUT; R
 DTS.US/F                 00 007 00 00: 18 SHEAR WAVE SLOWNESS (INPUT; R1_ACOUST
 GR.API                   00 008 00 00: Gamma ray; total
 GR_1.GAPI                00 009 00 00: Gamma Ray counts
 M0C6.MMHO                00 010 00 00: 5 FOCUSED INDUCTION CONDUCTIVITY - DOI 6
 M0R2.OHMM                00 011 00 00: True focused resistivity for MITRE - DOI
 M0R6.OHMM                00 012 00 00: True focused resistivity for MITRE - DOI
 M2R1.OHMM                00 013 00 00: 6 VERT RESOLUTION MATCHED (2 FT) RES - D
 M2R2.OHMM                00 014 00 00: 7 VERT RESOLUTION MATCHED (2 FT) RES - D
 M2R3.OHMM                00 015 00 00: 8 VERT RESOLUTION MATCHED (2 FT) RES - D
 M2R6.OHMM                00 016 00 00: 9 VERT RESOLUTION MATCHED (2 FT) RES - D
 M2R9.OHMM                00 017 00 00: 10 VERT RESOLUTION MATCHED (2 FT) RES -
 M2RX.OHMM                00 018 00 00: Vert resolution matched (2 ft) res - DOI
 PORAQI.pu                00 019 00 00: Acoustic porosity
 PORZC.pu                 00 020 00 00: Corrected porosity
 RWAZC.OHMM               00 021 00 00: Apparent formation water resistivity (co
 SCRA.                    00 022 00 00: 19 SHEAR TO COMPRESSIONAL SLOWNESS RATIO
 TEN.LBF                  00 023 00 00: 14 DIFFERENTIAL TENSION (INPUT; R1_MD_BA
 TEN_1.LBF                00 024 00 00: Differential Tension
 ZCOR.G/C3                00 025 00 00: 15 ZDL CORRECTION (INPUT; R1_MD_BA.LAS-Z
 ZDNC.g/cm3               00 026 00 00: Borehole size/mud weight corrected bulk mass density
~A
# ...
    2701.500
       9.875      11.161      11.161      44.171     143.172
     141.871     450.445      89.694      89.694    1377.579
       0.682       0.726       0.672       0.686       0.711
       0.742       0.764       0.774      65.158      27.207
       0.076       3.175     -33.299     -33.299       0.017
       2.201
    2702.000
       9.875      11.105      11.105      45.406     143.640
     142.352     451.720      91.502      91.502    1383.808
       0.680       0.723       0.671       0.685       0.710
       0.741       0.763       0.774      65.506      27.298
       0.077       3.173     -19.844     -19.844       0.015
       2.200
    2702.500
       9.875      11.125      11.125      46.419     143.973
     143.164     453.990      93.332      93.332    1391.254
       0.675       0.719       0.669       0.682       0.707
       0.738       0.760       0.770      65.754      27.363
       0.077       3.171       0.229       0.229       0.014
       2.199
    2703.000
       9.875      11.225      11.225      45.636     144.367
     144.478     458.069      94.044      94.044    1399.253
       0.667       0.715       0.662       0.675       0.700
       0.729       0.751       0.761      66.047      27.323
       0.075       3.171      11.515      11.515       0.016
       2.199
    2703.500
       9.875      11.341      11.341      46.014     144.994
     146.361     463.276      94.090      94.090    1406.912
       0.656       0.711       0.648       0.660       0.684
       0.714       0.735       0.744      66.514      27.279
       0.073       3.165       8.236       8.236       0.019
       2.200
    2704.000
       9.875      11.384      11.384      48.213     145.796
     147.389     467.618      94.022      94.022    1413.317
       0.646       0.708       0.629       0.642       0.665
       0.694       0.715       0.723      67.110      27.411
       0.072       3.173      -6.105      -6.105       0.022
       2.198
    2704.500
       9.875      11.316      11.316      49.209     146.546
     147.522     469.818      94.791      94.791    1417.815
       0.639       0.705       0.616       0.629       0.652
       0.680       0.701       0.709      67.668      27.741
       0.073       3.185     -23.696     -23.696       0.025
       2.192
    2705.000
       9.875      11.180      11.180      49.282     146.968
     146.502     468.877      96.537      96.537    1420.244
       0.638       0.704       0.614       0.628       0.651
       0.679       0.700       0.708      67.982      28.021
       0.074       3.200     -32.574     -32.574       0.026
       2.188
    2705.500
       9.875      11.069      11.069      50.252     146.785
     145.973     466.558      97.460      97.460    1421.059
       0.643       0.704       0.622       0.638       0.662
       0.690       0.712       0.719      67.846      28.044
       0.075       3.196     -31.243     -31.243       0.027
       2.187
    2706.000
       9.875      11.042      11.042      50.865     145.878
     145.143     463.896      96.322      96.322    1421.266
       0.651       0.704       0.636       0.652       0.676
       0.706       0.727       0.735      67.171      27.862
       0.076       3.196     -26.427     -26.427       0.029
       2.190
    2706.500
       9.875      11.086      11.086      49.564     144.509
     144.762     461.975      93.864      93.864    1422.186
       0.660       0.703       0.649       0.665       0.690
       0.721       0.742       0.750      66.153      27.600
       0.076       3.191     -15.253     -15.253       0.031
       2.195
    2707.000
       9.875      11.148      11.148      46.874     143.347
     144.392     461.816      92.008      92.008    1425.109
       0.666       0.702       0.661       0.676       0.702
       0.733       0.755       0.763      65.288      27.348
       0.076       3.198       1.165       1.165       0.033
       2.199
    2707.500
       9.875      11.180      11.180      45.430     143.106
     145.016     463.743      91.803      91.803    1430.943
       0.667       0.699       0.668       0.682       0.708
       0.738       0.760       0.768      65.109      27.211
       0.075       3.198       3.289       3.289       0.033
       2.201
    2708.000
       9.875      11.166      11.166      46.562     144.040
     145.264     467.531      93.151      93.151    1439.948
       0.661       0.694       0.662       0.676       0.701
       0.731       0.753       0.760      65.804      27.178
       0.075       3.218     -17.749     -17.749       0.031
       2.202
    2708.500
       9.875      11.108      11.108      48.188     145.758
     146.280     472.433      94.736      94.736    1451.654
       0.649       0.689       0.644       0.657       0.682
       0.710       0.731       0.739      67.082      27.214
       0.073       3.230     -40.187     -40.187       0.029
       2.201
    2709.000
       9.875      11.047      11.047      48.992     147.527
     147.106     477.796      95.814      95.814    1464.995
       0.633       0.683       0.619       0.632       0.656
       0.683       0.703       0.711      68.398      27.497
       0.071       3.248     -35.392     -35.392       0.027
       2.196
    2709.500
       9.875      11.050      11.050      49.833     148.668
     147.985     482.657      95.975      95.975    1478.587
       0.619       0.676       0.597       0.611       0.634
       0.660       0.679       0.686      69.247      28.142
       0.072       3.262     -10.468     -10.468       0.024
       2.186
    2710.000
       9.875      11.146      11.146      49.457     148.867
     148.497     486.582      94.828      94.828    1491.113
       0.609       0.671       0.585       0.599       0.621
       0.646       0.665       0.672      69.395      28.868
       0.075       3.277       6.942       6.942       0.021
       2.174
    2710.500
       9.875      11.285      11.285      47.551     148.252
     148.837     489.618      93.759      93.759    1501.635
       0.605       0.666       0.582       0.596       0.618
       0.643       0.662       0.669      68.937      29.194
       0.076       3.290       3.689       3.689       0.020
       2.168
    2711.000
       9.875      11.397      11.397      46.865     147.292
     148.943     489.914      93.845      93.845    1509.809
       0.604       0.662       0.586       0.601       0.623
       0.648       0.668       0.675      68.223      28.938
       0.076       3.289      -9.228      -9.228       0.021
       2.173
    2711.500
       9.875      11.428      11.428      47.606     146.648
     148.886     489.542      93.783      93.783    1515.878
       0.606       0.660       0.593       0.608       0.630
       0.656       0.676       0.684      67.744      28.512
       0.074       3.288     -21.753     -21.753       0.022
       2.180
    2712.000
       9.875      11.358      11.358      48.204     146.774
     148.826     488.422      92.217      92.217    1520.534
       0.608       0.658       0.597       0.611       0.633
       0.659       0.680       0.688      67.838      28.443
       0.074       3.282     -32.800     -32.800       0.020
       2.181
    2712.500
       9.875      11.250      11.250      48.453     147.536
     148.710     487.939      90.912      90.912    1524.653
       0.609       0.656       0.596       0.609       0.631
       0.658       0.678       0.687      68.405      28.718
       0.076       3.281     -37.369     -37.369       0.015
       2.176
    2713.000
       9.875      11.233      11.233      48.440     148.269
     148.767     488.248      91.233      91.233    1529.038
       0.608       0.654       0.595       0.607       0.629
       0.655       0.675       0.684      68.950      29.022
       0.077       3.282     -26.232     -26.232       0.011
       2.171
    2713.500
       9.875      11.334      11.334      49.381     148.373
     148.981     489.889      92.367      92.367    1534.225
       0.607       0.652       0.595       0.607       0.628
       0.654       0.674       0.684      69.027      29.298
       0.079       3.288      -6.517      -6.517       0.009
       2.167
