~Version Information
 VERS.                 2.0: 
 WRAP.                 YES: 
 END.                PETRA:GeoPLUS Corporation
~Well Information Block
#MNEM.UNIT       Data Type    Information
#---------    -------------   ---------------------------------
 STRT.F           1864.0000:
 STOP.F           7551.0000:
 STEP.F              0.5000:
 NULL.              -999.25:
 COMP.                           : COMPANY
 FLD.       SP 24                : FIELD
 LOC.                            : LOCATION
 DATE.      29-AUG-2018          : DATE
 WELL.      ST TIM  U2           : Well Name
 LABL.      ST TIM U2 #3 ST1                 : Well Label
 APIN.      170750312001         : API Number
 UWI.       170750312001         : Unique Well Number
 NUMB.      3 ST                 : Well Number
 OPER.      HEC                  : Operator Name
~Parameter Block
#MNEM.UNIT           VALUE            Description
#---------    --------------------   ---------------------------------
 EKB.F                    36.0 : KB Elevation
~Curve Information Block
#MNEM.UNIT      API CODE      Curve Description
#---------    -------------   ---------------------------------
 DEPT.F                   00 000 00 00: Depth (MD)
 BIT.IN                   00 001 00 00: Bit size
 CAL.IN                   00 002 00 00: Caliper
 CALX.IN                  00 003 00 00: 
 CNCF.PU                  00 004 00 00: 3 FIELD NORMALIZED COMPENSATED NEUTRON P
 DT24QI.us/ft             00 005 00 00: Slowness over 24-inch interval
 DTC.US/F                 00 006 00 00: 17 COMPRESSIONAL WAVE SLOWNESS (INPUT; R
 DTS.US/F                 00 007 00 00: 18 SHEAR WAVE SLOWNESS (INPUT; R1_ACOUST
 GR.API                   00 008 00 00: Gamma ray; total
 GR_1.GAPI                00 009 00 00: Gamma Ray counts
 M0C6.MMHO                00 010 00 00: 5 FOCUSED INDUCTION CONDUCTIVITY - DOI 6
 M0R2.OHMM                00 011 00 00: True focused resistivity for MITRE - DOI
 M0R6.OHMM                00 012 00 00: True focused resistivity for MITRE - DOI
 M2R1.OHMM                00 013 00 00: 6 VERT RESOLUTION MATCHED (2 FT) RES - D
 M2R2.OHMM                00 014 00 00: 7 VERT RESOLUTION MATCHED (2 FT) RES - D
 M2R3.OHMM                00 015 00 00: 8 VERT RESOLUTION MATCHED (2 FT) RES - D
 M2R6.OHMM                00 016 00 00: 9 VERT RESOLUTION MATCHED (2 FT) RES - D
 M2R9.OHMM                00 017 00 00: 10 VERT RESOLUTION MATCHED (2 FT) RES -
 M2RX.OHMM                00 018 00 00: Vert resolution matched (2 ft) res - DOI
 PORAQI.pu                00 019 00 00: Acoustic porosity
 PORZC.pu                 00 020 00 00: Corrected porosity
 RWAZC.OHMM               00 021 00 00: Apparent formation water resistivity (co
 SCRA.                    00 022 00 00: 19 SHEAR TO COMPRESSIONAL SLOWNESS RATIO
 TEN.LBF                  00 023 00 00: 14 DIFFERENTIAL TENSION (INPUT; R1_MD_BA
 TEN_1.LBF                00 024 00 00: Differential Tension
 ZCOR.G/C3                00 025 00 00: 15 ZDL CORRECTION (INPUT; R1_MD_BA.LAS-Z
 ZDNC.g/cm3               00 026 00 00: Borehole size/mud weight corrected bulk mass density
~A
# ...
    5676.500
       9.875      10.348      10.348      36.129     112.314
     113.877     266.626      71.260      71.260    1364.939
       0.765       0.733       0.838       0.784       0.776
       0.785       0.797       0.820      42.198      20.687
       0.045       2.341     -37.653     -37.653       0.041
       2.309
    5677.000
       9.875      10.336      10.336      36.859     114.779
     115.782     277.191      72.274      72.274    1395.720
       0.734       0.716       0.795       0.747       0.740
       0.748       0.761       0.782      44.032      21.432
       0.046       2.394     -26.960     -26.960       0.035
       2.296
    5677.500
       9.875      10.314      10.314      38.942     117.736
     117.778     286.573      76.448      76.448    1429.371
       0.703       0.700       0.745       0.704       0.698
       0.705       0.718       0.738      46.232      22.115
       0.046       2.433     -26.552     -26.552       0.030
       2.285
    5678.000
       9.875      10.260      10.260      41.412     120.698
     120.470     294.811      82.853      82.853    1464.101
       0.675       0.683       0.699       0.664       0.660
       0.667       0.679       0.698      48.436      22.291
       0.045       2.447     -29.371     -29.371       0.027
       2.282
    5678.500
       9.875      10.185      10.185      43.004     123.125
     123.037     301.126      88.960      88.960    1498.192
       0.653       0.667       0.669       0.639       0.635
       0.642       0.654       0.671      50.242      21.889
       0.041       2.447     -26.685     -26.685       0.029
       2.289
    5679.000
       9.875      10.149      10.149      43.073     124.695
     124.803     305.226      93.149      93.149    1530.123
       0.636       0.654       0.656       0.626       0.622
       0.629       0.641       0.658      51.410      21.314
       0.038       2.446     -28.546     -28.546       0.031
       2.298
    5679.500
       9.875      10.188      10.188      42.088     125.402
     125.786     307.888      96.140      96.140    1558.681
       0.624       0.642       0.651       0.620       0.616
       0.622       0.635       0.651      51.936      21.070
       0.037       2.448     -41.396     -41.396       0.030
       2.302
    5680.000
       9.875      10.255      10.255      41.815     125.502
     126.354     309.018      97.933      97.933    1583.021
       0.614       0.632       0.648       0.614       0.609
       0.616       0.628       0.644      52.010      21.382
       0.038       2.446     -45.792     -45.792       0.025
       2.297
    5680.500
       9.875      10.293      10.293      42.270     125.308
     126.602     309.921      97.704      97.704    1602.704
       0.606       0.624       0.640       0.605       0.600
       0.607       0.619       0.634      51.866      21.990
       0.039       2.448     -27.838     -27.838       0.020
       2.287
    5681.000
       9.875      10.297      10.297      42.274     124.958
     126.860     310.769      96.018      96.018    1617.685
       0.600       0.618       0.631       0.596       0.591
       0.598       0.610       0.624      51.605      22.355
       0.040       2.450       0.421       0.421       0.019
       2.281
    5681.500
       9.875      10.288      10.288      41.399     124.517
     126.636     311.507      94.478      94.478    1628.273
       0.597       0.614       0.624       0.591       0.586
       0.594       0.604       0.618      51.277      22.297
       0.040       2.460      15.276      15.276       0.023
       2.282
    5682.000
       9.875      10.272      10.272      40.467     124.241
     126.473     310.438      94.408      94.408    1635.011
       0.597       0.612       0.622       0.590       0.586
       0.593       0.604       0.616      51.072      22.171
       0.039       2.455       8.387       8.387       0.029
       2.284
    5682.500
       9.875      10.267      10.267      40.568     124.341
     126.124     309.022      95.169      95.169    1638.531
       0.598       0.610       0.623       0.593       0.588
       0.596       0.606       0.618      51.146      22.146
       0.039       2.450      -6.752      -6.752       0.033
       2.285
    5683.000
       9.875      10.293      10.293      41.534     124.695
     125.905     306.664      95.674      95.674    1639.405
       0.600       0.610       0.628       0.597       0.592
       0.601       0.610       0.621      51.410      21.981
       0.039       2.436     -15.653     -15.653       0.034
       2.287
    5683.500
       9.875      10.329      10.329      42.272     124.955
     125.642     305.790      95.976      95.976    1638.063
       0.601       0.610       0.635       0.602       0.597
       0.606       0.615       0.626      51.603      21.764
       0.038       2.434     -13.052     -13.052       0.032
       2.291
    5684.000
       9.875      10.355      10.355      42.813     124.787
     125.376     304.919      95.402      95.402    1634.781
       0.603       0.612       0.639       0.605       0.601
       0.610       0.619       0.629      51.478      21.950
       0.039       2.432      -3.555      -3.555       0.028
       2.288
    5684.500
       9.875      10.363      10.363      43.066     124.233
     125.037     304.979      93.528      93.528    1629.767
       0.604       0.614       0.639       0.605       0.601
       0.610       0.619       0.628      51.066      22.423
       0.041       2.439      -2.438      -2.438       0.023
       2.280
    5685.000
       9.875      10.345      10.345      42.192     123.716
     124.923     305.108      91.825      91.825    1623.254
       0.606       0.616       0.635       0.603       0.599
       0.609       0.617       0.625      50.682      22.532
       0.041       2.442      -4.937      -4.937       0.023
       2.278
    5685.500
       9.875      10.306      10.306      40.262     123.561
     124.637     306.319      91.589      91.589    1615.602
       0.609       0.619       0.634       0.604       0.601
       0.611       0.620       0.627      50.566      22.150
       0.040       2.458       7.028       7.028       0.027
       2.285
    5686.000
       9.875      10.286      10.286      39.605     123.647
     124.222     306.390      91.621      91.621    1607.314
       0.614       0.622       0.638       0.611       0.608
       0.619       0.627       0.634      50.630      21.721
       0.038       2.466      17.069      17.069       0.031
       2.292
    5686.500
       9.875      10.301      10.301      41.105     123.554
     123.684     306.556      92.261      92.261    1599.001
       0.620       0.625       0.646       0.620       0.618
       0.629       0.638       0.644      50.561      21.406
       0.038       2.479       0.989       0.989       0.033
       2.297
    5687.000
       9.875      10.317      10.317      42.722     122.993
     123.371     305.846      94.729      94.729    1591.310
       0.625       0.628       0.655       0.628       0.627
       0.638       0.648       0.653      50.143      21.149
       0.037       2.479     -23.316     -23.316       0.032
       2.301
    5687.500
       9.875      10.310      10.310      42.860     122.013
     123.285     304.969      97.416      97.416    1584.824
       0.629       0.631       0.660       0.633       0.632
       0.644       0.654       0.657      49.414      21.095
       0.037       2.474     -30.028     -30.028       0.028
       2.302
    5688.000
       9.875      10.291      10.291      42.524     120.964
     123.282     304.440      98.094      98.094    1579.997
       0.633       0.633       0.662       0.635       0.634
       0.646       0.656       0.659      48.634      21.210
       0.038       2.469     -16.691     -16.691       0.023
       2.300
    5688.500
       9.875      10.279      10.279      42.231     120.299
     122.989     304.345      97.369      97.369    1577.094
       0.635       0.634       0.666       0.638       0.638
       0.649       0.660       0.661      48.139      21.052
       0.037       2.475       3.470       3.470       0.022
       2.303
